Time,header.seq,header.stamp.secs,header.stamp.nsecs,header.frame_id,pose.position.x,pose.position.y,pose.position.z,pose.orientation.x,pose.orientation.y,pose.orientation.z,pose.orientation.w
1638480616.6106956,23032,1638480616,511347098,world,2.3778899585306026,1.9263052189639203,0.34329615332990127,-0.004409957577569642,0.01156258652664912,0.40848572910795855,0.912680813856694
1638480616.6112177,23033,1638480616,521326507,world,2.3778788048460733,1.9262746641081718,0.3433022619838074,-0.004381579858861066,0.01157501873264052,0.4085136036582855,0.9126683167095265
1638480616.6113818,23034,1638480616,531288698,world,2.377724152077854,1.9263946290698262,0.34330968661303296,-0.00427100413059558,0.011520158574364428,0.40891173815180865,0.9124912245450937
1638480616.6115274,23035,1638480616,541227305,world,2.377751992723231,1.9263585700384962,0.3433544640329874,-0.0041161434775527075,0.011512005327867687,0.4089644108421016,0.9124684332955174
1638480616.6117454,23036,1638480616,551302045,world,2.3777001614984115,1.9264174570470718,0.3433087616455491,-0.004190347242853586,0.011511431230737591,0.40908114294547215,0.912415774977302
1638480616.6118424,23037,1638480616,561326992,world,2.3776521240531183,1.9264603347128784,0.34328246763108156,-0.004329136033076796,0.01151141999744794,0.4091410714748948,0.9123882558556005
1638480616.6118925,23038,1638480616,571255262,world,2.377628109490886,1.9264564010135974,0.3432732101721845,-0.004383119186290223,0.011468179745074428,0.409114500994023,0.9124004571436519
1638480616.6120005,23039,1638480616,581265616,world,2.377640781988763,1.9264467601775814,0.3432776502516797,-0.004370856175085084,0.011514858453121769,0.40905008564008,0.9124288087784956
1638480616.6120422,23040,1638480616,591295522,world,2.377616867455954,1.926393040691621,0.3432529339707099,-0.004364927561588701,0.01150603345914303,0.40904054170505516,0.9124332270599609
1638480616.6121874,23041,1638480616,601284179,world,2.3776026371344896,1.9263881369062161,0.3432741500242729,-0.004310532363325141,0.011466567175569355,0.4090068889665291,0.9124490681270239
1638480616.6123114,23042,1638480616,611308230,world,2.3776167136623214,1.9263567799532229,0.34331778804311325,-0.004309451316215332,0.011406061087548887,0.40901549305473967,0.9124459747519348
1638480616.6219347,23043,1638480616,621314359,world,2.377684975929669,1.9263871771784022,0.3433589616039056,-0.004212777081030516,0.011448788784497822,0.40892209636969956,0.9124877516138196
1638480616.6316974,23044,1638480616,631291624,world,2.3777242751596193,1.9263641103721931,0.3433536008346798,-0.004116749834797464,0.011462467104221418,0.4089017077956658,0.9124971548341783
1638480616.6416686,23045,1638480616,641254199,world,2.3777145529791777,1.926341252707931,0.3432886053015062,-0.004192849731847303,0.01154005473983557,0.40898919975045417,0.9124566190429062
1638480616.6518998,23046,1638480616,651230664,world,2.3777200066959523,1.9263587449698758,0.3432954683199484,-0.0042130408054792635,0.011493812425275023,0.40900829180984566,0.9124485518613618
1638480616.6618009,23047,1638480616,661241753,world,2.3776276892932593,1.9263358214729214,0.34326193983835374,-0.004370424523695785,0.01149310698875507,0.4091604811445754,0.9123795857814705
1638480616.6716828,23048,1638480616,671237355,world,2.37769631300996,1.9263609468405105,0.343350622710066,-0.00414159629290598,0.011443742697633987,0.4090229360087878,0.9124429438337326
1638480616.6817107,23049,1638480616,681269853,world,2.3776779021734935,1.926377383367054,0.3433039654485372,-0.004281779731203589,0.011477091875310071,0.4089793319579462,0.9124614231602622
1638480616.6918523,23050,1638480616,691281903,world,2.3776882959357657,1.926357188566359,0.3433583380246908,-0.0040836893871341595,0.011446728295169862,0.40898369136879725,0.9124607586557782
1638480616.702217,23051,1638480616,701332514,world,2.377676465989155,1.926400163284908,0.3433639289587767,-0.004130515810531696,0.011446152784479167,0.40893464500572796,0.9124825371148823
1638480616.711622,23052,1638480616,711218159,world,2.377610461441244,1.9264152625615913,0.3432799711033802,-0.004370780380443441,0.011481683677955533,0.4089728324210654,0.9124638565774958
1638480616.7216368,23053,1638480616,721256418,world,2.3775987691735487,1.9263746036730345,0.34331436991730546,-0.004280906155285222,0.011404770396699423,0.4090203360881626,0.9124439542903524
1638480616.7346487,23054,1638480616,731247315,world,2.377633122302739,1.9263985343722811,0.34330652346456725,-0.004244214365238473,0.01153203599596899,0.4089904825643453,0.9124559079550058
1638480616.7421336,23055,1638480616,741263653,world,2.377671841594394,1.9263822848626844,0.3433717033354571,-0.0040856957325280255,0.011478737442536148,0.40896373848087014,0.9124692905982409
1638480616.7516425,23056,1638480616,751234805,world,2.37765611902912,1.9263823845016812,0.3433722515079538,-0.004115054788553499,0.011458600777294155,0.4090372026724497,0.9124364819658469
1638480616.7615924,23057,1638480616,761235782,world,2.377523168348511,1.9264070299550802,0.3431360718183719,-0.004641925492564074,0.011494010098081965,0.40921459871013705,0.9123539622657909
1638480616.771578,23058,1638480616,771210647,world,2.377617393483269,1.9263349755330768,0.343311115739068,-0.004156017571486047,0.011450704779747427,0.40916353012217443,0.9123797534447777
1638480616.7818186,23059,1638480616,781320876,world,2.377795532515181,1.926270620319481,0.3432563499257492,-0.004450114757869277,0.011587321266696666,0.40863910536030534,0.9126116436002959
1638480616.7919426,23060,1638480616,791293981,world,2.3778333776598073,1.9262328942032545,0.34329712511796484,-0.004316387260219212,0.011611231038138135,0.40862403215160437,0.9126187311593837
1638480616.8016055,23061,1638480616,801300846,world,2.377787458886313,1.9262785011405086,0.34324934820888414,-0.004484018732066285,0.011602773206044914,0.40855540088090736,0.9126487569930618
1638480616.8118331,23062,1638480616,811281791,world,2.3776484815481624,1.926398936147172,0.3433110784885841,-0.004213222565647014,0.011490581440864999,0.4089759497234029,0.9124630884817225
1638480616.8220043,23063,1638480616,821282928,world,2.3775793551476863,1.9263597782467254,0.3432799808465735,-0.004301043378719641,0.011464581706905423,0.4091186049419264,0.9123990527628314
1638480616.8319724,23064,1638480616,831308610,world,2.377639697845737,1.9263725547566632,0.34334702390290683,-0.004165374055090366,0.01142635306801477,0.40895159722295105,0.9124750293807187
1638480616.8417342,23065,1638480616,841315764,world,2.3776056625973125,1.9263430538819835,0.3433108317661819,-0.004186153339938486,0.011480235285246502,0.4090993900568636,0.9124080059781984
1638480616.8517444,23066,1638480616,851383592,world,2.3776271015292494,1.9264054349983373,0.3433278124332372,-0.004227806131495011,0.011527362335004178,0.4090476097556936,0.9124304348968563
1638480616.8622825,23067,1638480616,861314135,world,2.3775601047182517,1.9263706502181066,0.3432715667230049,-0.004285921982066036,0.011509987538568522,0.4091729744040756,0.9123741710926211
1638480616.8718128,23068,1638480616,871275078,world,2.3774593973343294,1.9263180537276283,0.3432468531383738,-0.004273430111008156,0.011351787733730488,0.40918993516028423,0.9123686051557546
1638480616.8817647,23069,1638480616,881307033,world,2.377638725367384,1.92635604922408,0.3433225426256301,-0.004138963544162384,0.011452783143117899,0.40898879387204906,0.9124581465613332
1638480616.892064,23070,1638480616,891236231,world,2.37758141225999,1.9263601198367895,0.3432510739284553,-0.00435902136330733,0.011452334894749625,0.4090975728222747,0.9124083619022441
1638480616.90179,23071,1638480616,901243353,world,2.377611054784212,1.9263238624938097,0.3433102984825953,-0.004196743952050627,0.011478460936276235,0.409085439389546,0.9124142346293145
1638480616.9120193,23072,1638480616,911406129,world,2.377609131827828,1.9263375278083317,0.34329589363527263,-0.00431028573625197,0.011470768771533201,0.4090813669100665,0.912415627961103
1638480616.9218771,23073,1638480616,921275517,world,2.377660145057991,1.9263824132943115,0.34332266528870314,-0.004172243700967086,0.011545382746607893,0.40901553011274727,0.9124448436186827
1638480616.9316714,23074,1638480616,931248685,world,2.3776683153832026,1.9263428718216886,0.3433417147111643,-0.0040862900474527225,0.011437610568009897,0.40899319967499065,0.9124565994707673
1638480616.9418988,23075,1638480616,941269503,world,2.3776415737650645,1.9263682912538884,0.343275333447587,-0.004233977228134454,0.011488049495216255,0.4089755228559743,0.9124632156203939
1638480616.9529824,23076,1638480616,951250256,world,2.3776029928051265,1.9263090215067924,0.34330461360502024,-0.004166508605224318,0.011421540776922152,0.4091423922675721,0.9123895502809598
1638480616.9619071,23077,1638480616,961340453,world,2.3777884701766503,1.9262786868769293,0.34331591582144305,-0.0043308517819294675,0.01158483410520363,0.4085818425995486,0.9126378872474863
1638480616.9718192,23078,1638480616,971360439,world,2.3777544496446685,1.9262991961700893,0.3432547293350129,-0.004509559231390625,0.011568806445932427,0.408636491673919,0.9126127570143792
1638480616.9824529,23079,1638480616,981272101,world,2.3777569169348607,1.92630408763607,0.3432899629894518,-0.004393763297922868,0.011629879206094176,0.4086535214328134,0.912604920090997
1638480616.991625,23080,1638480616,991271830,world,2.3775576294995258,1.9263873364524065,0.3432898247001662,-0.004358263048847712,0.011408306541414264,0.4091123420753508,0.912402294849523
1638480617.0017395,23081,1638480617,1256583,world,2.377611461025993,1.9263971024660642,0.3432969125361171,-0.004242165866331363,0.011481132810897396,0.40904899884112894,0.9124303283896318
1638480617.011691,23082,1638480617,11313914,world,2.3776214518952594,1.9264004247253586,0.34328756688627654,-0.004237786995641122,0.011519464710185412,0.4089984672863997,0.912452517587379
1638480617.0221539,23083,1638480617,21353197,world,2.3776379355522264,1.9263552382378888,0.34334436058726864,-0.004073242242063053,0.011436659734353202,0.40899557654679086,0.9124556043320224
1638480617.0321884,23084,1638480617,31256890,world,2.377772357507387,1.9262420894407615,0.34330204920812085,-0.004309089323210688,0.011549922980195295,0.4086027726061873,0.912629062241003
1638480617.0417883,23085,1638480617,41298637,world,2.377772795925589,1.9262698765279582,0.3432821532061086,-0.004438340386945876,0.01160657847027326,0.40859122744201803,0.9126328929686066
1638480617.0518754,23086,1638480617,51298174,world,2.377707059968782,1.9262430700235587,0.34324751016743044,-0.004476474493488045,0.011617957026463973,0.4087271548194884,0.9125716942595833
1638480617.0617325,23087,1638480617,61359186,world,2.3776953206561533,1.9262457854921686,0.3432276546457261,-0.004551952273569155,0.01162744159807188,0.4087657637247977,0.912553906757768
1638480617.0718877,23088,1638480617,71312545,world,2.3776303606317835,1.9264012338197036,0.3433286164403561,-0.004106479125707712,0.011563745849293844,0.4090135079846282,0.9124458158692118
1638480617.0819125,23089,1638480617,81266544,world,2.3775527646369805,1.926347740647465,0.3432778595130527,-0.0042002276441231515,0.01146076712211918,0.40910597521049363,0.9124052334088079
1638480617.0918062,23090,1638480617,91367365,world,2.3776182641920527,1.9263345056133567,0.34336191483847234,-0.003971429115034642,0.011535738327179279,0.409050292814804,0.9124302781254874
1638480617.101934,23091,1638480617,101323413,world,2.377586675709519,1.926380257654225,0.34330356059526834,-0.0040715044631787515,0.011560650148660105,0.4090612382044058,0.9124246147590632
1638480617.1118906,23092,1638480617,111261123,world,2.377772204872274,1.9262296685861569,0.3432595588089813,-0.004015452673960467,0.011599165044715113,0.40890414272459624,0.9124947876962104
1638480617.1223326,23093,1638480617,121298838,world,2.377770906137614,1.9262019142916194,0.34332226905546964,-0.00395418927872749,0.011536637949394102,0.40892451680224756,0.9124867176732061
1638480617.1321251,23094,1638480617,131560721,world,2.377514320683177,1.9263489648047927,0.3433687136563713,-0.0039869155672178766,0.011519518728335766,0.409174133248059,0.9123748866958293
1638480617.1416252,23095,1638480617,141236854,world,2.377580322723451,1.9263546402427947,0.343388428143877,-0.0037355470875332793,0.011564942736310691,0.4091050921779698,0.9124063356539769
1638480617.1521327,23096,1638480617,151275176,world,2.3774712097629815,1.9263549403700098,0.3432712513215918,-0.003990870481685481,0.01162261750315388,0.4093143480821891,0.9123106664778322
1638480617.1618032,23097,1638480617,161304827,world,2.3774325900483837,1.9263907531395774,0.34325695919304305,-0.00395029619063499,0.011578112433416556,0.4094015757838073,0.9122722686885867
1638480617.1715126,23098,1638480617,171221864,world,2.377387672727793,1.9264269976874606,0.3432824985304847,-0.0038896366176661636,0.011680630948618688,0.40961029630871254,0.912177525893679
1638480617.1815915,23099,1638480617,181194424,world,2.3773079365564027,1.926490460436742,0.34328130665469536,-0.0038698899107554156,0.011588742716522639,0.4098130829947048,0.9120876942491355
1638480617.1916406,23100,1638480617,191220171,world,2.3770776971147094,1.9264773518356872,0.3432475822995308,-0.003874170730709183,0.011488602102251978,0.4101463549839479,0.9119391264312914
1638480617.2018068,23101,1638480617,201194555,world,2.3770269776886384,1.926541331415978,0.343243465146738,-0.003915060675966233,0.011422620288127093,0.41016239323813297,0.9119325672541934
1638480617.2118182,23102,1638480617,211193484,world,2.3769609180830633,1.9265879953520169,0.34321642894656124,-0.003926004946033857,0.011409368312664975,0.41019110212316545,0.911919773082508
1638480617.2217524,23103,1638480617,221219134,world,2.3769823984267613,1.9265912363749274,0.3432209663866171,-0.003917216212967343,0.01141357960842565,0.41003145395773066,0.9119915528024218
1638480617.2316513,23104,1638480617,231197070,world,2.3770586271529544,1.9266334294561476,0.3432349098427947,-0.003974217852500624,0.011495630273774054,0.40992356239736577,0.9120387760772689
1638480617.2417896,23105,1638480617,241236481,world,2.376983732160096,1.9265365354157729,0.3432406634052133,-0.0039272860044440566,0.01133139947324739,0.40983585380494647,0.9120804508082538
1638480617.2517378,23106,1638480617,251249971,world,2.3770045123130688,1.9264549223210612,0.34333405700765607,-0.003791006711932306,0.010969888879145715,0.409856697716274,0.9120760807866856
1638480617.2617936,23107,1638480617,261348840,world,2.377200856618637,1.9263811904604458,0.34361859357310803,-0.003107899453540548,0.010189121421612204,0.4096718697904032,0.912170752583132
1638480617.2717452,23108,1638480617,271258869,world,2.377251674103428,1.9262856041406755,0.3438689909384603,-0.0021808817705631102,0.0087068002497166,0.4096825680212685,0.9121839884823747
1638480617.2818182,23109,1638480617,281369163,world,2.3776715125410077,1.9264576654129486,0.344145252750788,-0.0008112119921844183,0.007489978365558821,0.4098114751432198,0.9121391324793193
1638480617.2917104,23110,1638480617,291253655,world,2.378472820174527,1.9269588392426338,0.3441238385305741,-0.0005615555603411066,0.007352278875898352,0.40965584406168637,0.9122103474949137
1638480617.302001,23111,1638480617,301263305,world,2.3792691720156816,1.9277603317278775,0.34396502214313285,-0.000868289384030235,0.00754939839076858,0.4097061138719332,0.9121859201464587
1638480617.3116841,23112,1638480617,311231609,world,2.379853475376769,1.9284365945702189,0.3439429661373165,-0.0007205803263365209,0.008166061510667288,0.4101287056658453,0.9119908119012253
1638480617.3216262,23113,1638480617,321318509,world,2.380356944331006,1.9290942681202747,0.34424783227561045,-0.00023734871704780245,0.007479368459078305,0.4106086429760144,0.9117809742621502
1638480617.3316834,23114,1638480617,331399041,world,2.3806423986442926,1.9296063089845152,0.3442621935460166,-0.0006172007582465891,0.006912032059678952,0.41079005099352967,0.9117035575672409
1638480617.3416016,23115,1638480617,341217387,world,2.380763125369032,1.9300030074663705,0.3446356307958622,0.0007746917498067801,0.004873071491200895,0.41148680941739496,0.9114023582932113
1638480617.351603,23116,1638480617,351206076,world,2.381500206290809,1.930685727782215,0.3451055508173446,0.0027015598107389366,0.0028596715035846664,0.4115521596827839,0.9113777173674575
1638480617.361918,23117,1638480617,361287952,world,2.3824171630018682,1.9316540570851661,0.34528022100358985,0.0034183158725744284,0.0015825866106669235,0.41174599731618916,0.9112908669740478
1638480617.372039,23118,1638480617,371247520,world,2.3839029221811714,1.932789294014483,0.3455696858615385,0.004101676245761441,0.0011125734883793276,0.4111795600735573,0.9115444628815008
1638480617.3822477,23119,1638480617,381258513,world,2.384965904948516,1.9341921867995695,0.34563475956851214,0.004432502614732233,0.000907282895657496,0.41141366890764564,0.9114375035043641
1638480617.3925052,23120,1638480617,391321605,world,2.3857709428694593,1.9355706732095717,0.3456566086660889,0.00484056308442471,0.0002387691421234126,0.412486670927892,0.910950744137765
1638480617.4019043,23121,1638480617,401299701,world,2.3869913749103393,1.9369191051760501,0.346007775885631,0.005904275509965399,-0.0011295678542149212,0.4128519265386292,0.9107783211959471
1638480617.4118433,23122,1638480617,411290630,world,2.388311103331553,1.9385148741839486,0.3467359344978988,0.007990083677662288,-0.003502950310654158,0.41345199377146263,0.910484122183549
1638480617.4221513,23123,1638480617,421264214,world,2.3896377865248697,1.9402036259655984,0.3471095812695981,0.009559715603577169,-0.0058639531474187385,0.41430633045566617,0.9100683987676003
1638480617.4316742,23124,1638480617,431267879,world,2.3913581081327253,1.942395580228846,0.3474975968562454,0.010798319759338298,-0.007077122820897604,0.41530730762233187,0.9095895507636633
1638480617.44169,23125,1638480617,441249048,world,2.3932462429365167,1.9447680609929399,0.3479534259864744,0.011637847577820309,-0.00828767095320735,0.41606204007926684,0.9092239844059358
1638480617.45186,23126,1638480617,451261161,world,2.395221515539905,1.9474740168022777,0.34848622879959146,0.012481623362711866,-0.010296832875823001,0.41668144224715065,0.9089085542549337
1638480617.4620988,23127,1638480617,461279163,world,2.396950189529706,1.9501248917806817,0.3485718315590181,0.013385027013061967,-0.011596301682716812,0.4178258966897976,0.9083544940685382
1638480617.472037,23128,1638480617,471312654,world,2.3992154624952287,1.9532564946221507,0.3491167049652948,0.014858738691947926,-0.01329778871672144,0.419030249894246,0.9077532904778124
1638480617.4816232,23129,1638480617,481262077,world,2.402443618094901,1.9568600582775963,0.34984150324817553,0.015940771830838016,-0.014546777841327048,0.41916520218376246,0.907653467093096
1638480617.4926903,23130,1638480617,491360722,world,2.4046562782938725,1.9603048057669843,0.34984405237056443,0.016272737150758585,-0.015539555497227223,0.4204614674577737,0.9070313526134732
1638480617.5025563,23131,1638480617,501282944,world,2.4076054586889226,1.9642751418820656,0.3501825580663214,0.017187462139322148,-0.016184746741268696,0.4212670811809194,0.906629302102816
1638480617.5116377,23132,1638480617,511291281,world,2.4106234558439157,1.9683591904612991,0.35040255127554043,0.01806488739226721,-0.01717564179450564,0.42248610777964474,0.9060265701985003
1638480617.5217643,23133,1638480617,521220800,world,2.4137612370900436,1.9725952814929635,0.3509198542235089,0.01942571799512557,-0.018289376121325578,0.4235125958570559,0.9054972232712172
1638480617.5315955,23134,1638480617,531199952,world,2.417228978326971,1.9773464114282506,0.3512470838702515,0.02021656591952177,-0.01902745546891523,0.42441502381343854,0.9050420619850983
1638480617.5416641,23135,1638480617,541225954,world,2.421249559997015,1.982306195299969,0.35201855967772344,0.021774386556868655,-0.020304759936451276,0.4251465268445553,0.9046347459201459
1638480617.5516348,23136,1638480617,551271541,world,2.425107581378799,1.9877502615528118,0.35248277046318544,0.02290029756315946,-0.019999415885254102,0.4255049871462204,0.9044451921755471
1638480617.5616796,23137,1638480617,561248485,world,2.429003891046549,1.9929946844667936,0.35253222561901726,0.02308974344920696,-0.0203638098791815,0.4266876508353715,0.9038748960001304
1638480617.571911,23138,1638480617,571363643,world,2.4328521094758573,1.9987686288038236,0.3527565526695173,0.023905633208104876,-0.02072107206752697,0.42822856742187043,0.9031165217828232
1638480617.5817082,23139,1638480617,581265064,world,2.4365311665588503,2.004330932210843,0.3523833588816974,0.022924226974043175,-0.02147872989040438,0.43040213520384074,0.9020904311608193
1638480617.591608,23140,1638480617,591210615,world,2.4407472808506814,2.010281253623043,0.3521319771857673,0.02356111788943883,-0.02078930781928815,0.4315677359347147,0.9015331206918464
1638480617.6019235,23141,1638480617,601300428,world,2.4452775386319785,2.0169428729443615,0.3521539217283665,0.022587549972916936,-0.020093564806385925,0.43306703853968864,0.9008545894704963
1638480617.611905,23142,1638480617,611249979,world,2.449458768803729,2.023666378898629,0.3519121368448162,0.020914341078182287,-0.019018864527346593,0.434280756786217,0.9003338810766518
1638480617.6218228,23143,1638480617,621270253,world,2.4537329810736326,2.0298019668219864,0.3517440689067617,0.021638673234467446,-0.01823829675341828,0.43560630848642856,0.8996923231633207
1638480617.6318307,23144,1638480617,631307904,world,2.4578016461738175,2.036316436815128,0.3517517210186964,0.021476056600984332,-0.017864414370575964,0.4371003541323229,0.8989788218359015
1638480617.6418967,23145,1638480617,641274063,world,2.462191688774649,2.042843783915663,0.35171896973676536,0.021269851875638308,-0.017665690620839558,0.43833990017967656,0.8983839094098629
1638480617.651577,23146,1638480617,651229375,world,2.4666124883685216,2.0496127087649825,0.3517135336780892,0.021079590677315,-0.017180060267319427,0.4387636123187216,0.8981909534676437
1638480617.6618066,23147,1638480617,661195694,world,2.4709482145368553,2.0562531518571823,0.35142898536882156,0.020884105555104095,-0.01629084421863704,0.4405453483931564,0.8973395447315134
1638480617.6716893,23148,1638480617,671263170,world,2.475065177998701,2.0628898224401753,0.3510697412224641,0.02014582740211321,-0.015018154668005948,0.44189934867036607,0.8967126442252046
1638480617.6817677,23149,1638480617,681391032,world,2.479251418546815,2.06945894438995,0.3508452081692845,0.01919069312899771,-0.013512111815443007,0.44302168932983427,0.896203616883382
1638480617.6918728,23150,1638480617,691283749,world,2.4838423578753503,2.0764916066725534,0.3506251865581641,0.017141709429460358,-0.011154979942266078,0.44414425077612646,0.8957218389225736
1638480617.7017395,23151,1638480617,701266006,world,2.48806305622084,2.0832395809486766,0.34967706831578155,0.014793807656601207,-0.007347157850567022,0.44460831699837877,0.8955727815104741
1638480617.711629,23152,1638480617,711275399,world,2.491820031033331,2.0893220774574073,0.34859379149952413,0.01254052974389772,-0.0035692418337170914,0.44525009792343756,0.8953113122962563
1638480617.7216096,23153,1638480617,721209622,world,2.4955721249352867,2.0951868832955847,0.3478971367913815,0.009847465044547492,0.0006938749473369582,0.44587505717440684,0.8950407696633005
1638480617.7316787,23154,1638480617,731330028,world,2.4987669884122514,2.100746053107595,0.3468405752562291,0.007136976353254805,0.004540403727596303,0.4463786160911428,0.894804212886305
1638480617.7415943,23155,1638480617,741230169,world,2.501951508031678,2.1057787611917944,0.3463340220205011,0.005380567657767462,0.00768949937180719,0.44660336112163834,0.8946828258807401
1638480617.7517319,23156,1638480617,751228746,world,2.5045769679659338,2.1104972455795066,0.3454364679570066,0.002143997857198681,0.01151885106783368,0.4467356838676327,0.8945892622330004
1638480617.7617357,23157,1638480617,761353984,world,2.507114907303457,2.1146624056984376,0.3450566061001845,-0.0008671368577927173,0.013866550790093479,0.44691136077628874,0.8944703474414015
1638480617.7715209,23158,1638480617,771225740,world,2.5093847405944865,2.1181658820821436,0.3447325840918629,-0.0019557515168316707,0.015733214460578186,0.44691191381807455,0.894437466951272
1638480617.7816913,23159,1638480617,781214493,world,2.5112037831919,2.1214198612373902,0.3439811307447845,-0.0038084454719063137,0.01832584087119013,0.446815183889957,0.8944304616597288
1638480617.7915277,23160,1638480617,791198029,world,2.512956416832353,2.124115530921897,0.34369602350066686,-0.004469026070068226,0.020419584310743893,0.44690246032994946,0.8943384478672487
1638480617.8017948,23161,1638480617,801228159,world,2.5143660159475925,2.1264851590048326,0.3434263588952776,-0.005589113035762247,0.020986237582920373,0.4469037290798216,0.8943183977656594
1638480617.811784,23162,1638480617,811232657,world,2.515452973363101,2.1285177657131937,0.3437304477526807,-0.00664529081824344,0.021073284852118783,0.447201619939777,0.8941602025916394
1638480617.8217645,23163,1638480617,821352999,world,2.5169888840699097,2.1306582643538396,0.3441673329300316,-0.007809744126200596,0.022012288455233717,0.44741082546042465,0.8940235009855548
1638480617.8318264,23164,1638480617,831306486,world,2.517440966871298,2.1320856933684635,0.3438821636097102,-0.008284885624550853,0.021393785695586667,0.447549172139906,0.8939649909927593
1638480617.8416479,23165,1638480617,841221988,world,2.5177105034810126,2.1333334914571083,0.3435224085082649,-0.008355446254371913,0.021588150216674592,0.4479128040494988,0.8937775216778658
1638480617.851602,23166,1638480617,851217941,world,2.5182918325221118,2.1344030489619072,0.34323137257846514,-0.008805468769941312,0.02211118981369461,0.4482815889357267,0.8935755010216118
1638480617.861786,23167,1638480617,861288713,world,2.518792376512627,2.135135094898192,0.3431941378891628,-0.008000934557327257,0.02205502415433903,0.44853646982633394,0.8934565440979718
1638480617.8717387,23168,1638480617,871222007,world,2.519248757650067,2.1357912343317946,0.34327752415643104,-0.008386386377521305,0.022147081027608498,0.4486503779619225,0.8933935379663923
1638480617.8815722,23169,1638480617,881220936,world,2.519441846702086,2.136261333702137,0.343144902164107,-0.0084234032189391,0.021512877729723774,0.4486265332196289,0.893420660193917
1638480617.8916545,23170,1638480617,891300124,world,2.5198432108741775,2.136656499279614,0.34315556342595543,-0.007503369761285363,0.02144184392856434,0.4486915344960304,0.8933979256987149
1638480617.9024863,23171,1638480617,901308686,world,2.520104124624523,2.1370575419681073,0.3431574580735,-0.007121972248654604,0.021366380355491862,0.44859443974109353,0.8934516125315174
1638480617.9120743,23172,1638480617,911288062,world,2.520474981320158,2.1372590276384362,0.34346127569382007,-0.0062974309468803984,0.02052063089078341,0.4484376107200831,0.8935563526510104
1638480617.9217134,23173,1638480617,921224685,world,2.520487382331938,2.1374847344972614,0.3430033907835645,-0.006814607637300228,0.020848896136079726,0.4485933281219908,0.8934667932369356
1638480617.9318845,23174,1638480617,931292705,world,2.5205972859542363,2.137558533748691,0.34283430070224463,-0.007130918189231062,0.02043693224893852,0.44868602013508924,0.8934272981845613
1638480617.9420922,23175,1638480617,941345620,world,2.52065854692376,2.1376486616284094,0.3428180170353527,-0.006534849192854921,0.020425775530817376,0.4485881627229554,0.8934812497779876
1638480617.951601,23176,1638480617,951241537,world,2.5206521536075437,2.1376206484018128,0.34273444943648285,-0.006417984738511195,0.020150843473733016,0.4486168139966765,0.8934739543930003
1638480617.9615073,23177,1638480617,961192048,world,2.5206738138926146,2.1375563555255215,0.3428537654825491,-0.006040637640539276,0.01953410319876682,0.44860172170357016,0.893497859423126
1638480617.9717398,23178,1638480617,971254308,world,2.5206271997393626,2.1374011959527106,0.3429611670128753,-0.0056991100288370814,0.019346501879834364,0.44857525472406146,0.8935174726098736
1638480617.9816685,23179,1638480617,981314263,world,2.5203899487514128,2.1371102448307866,0.34284852297121093,-0.005912869178820909,0.019129940233334006,0.44875321758805053,0.893431381287402
1638480617.9916182,23180,1638480617,991244997,world,2.520135243722312,2.136904596315888,0.3426524452002953,-0.0062982909220247445,0.018933652946314713,0.4487084749559486,0.8934554005770388
1638480618.0018237,23181,1638480618,1269848,world,2.5197728069812393,2.1365751685348284,0.3424725481919137,-0.006429945645549145,0.019457511838037848,0.4487816905425581,0.8934064334141721
1638480618.011673,23182,1638480618,11224807,world,2.5194509087712995,2.1361049808182413,0.3424520285913174,-0.0068250489198716955,0.01914874655217219,0.4489757165743558,0.8933126832969885
1638480618.0218668,23183,1638480618,21285274,world,2.5190351052996514,2.1356391967920736,0.3424680975220092,-0.0069052739179445155,0.01879835261613257,0.44885146431355477,0.8933819463782641
1638480618.0317576,23184,1638480618,31288651,world,2.5185010832452126,2.1349533188514296,0.34251587918384274,-0.006151193012196315,0.017940720839998595,0.448362655805076,0.8936505034070575
1638480618.0416656,23185,1638480618,41318141,world,2.518212624703739,2.1346446246045767,0.34243607107180773,-0.00691509610816007,0.0177856434354495,0.4486413769672949,0.8935081237494665
1638480618.0517986,23186,1638480618,51233387,world,2.5184442423890854,2.1342109095860295,0.34319133672061547,-0.006419782939047504,0.017337411705908388,0.44848971336543436,0.8935967645128008
1638480618.0616543,23187,1638480618,61210779,world,2.517900831686368,2.13345366791617,0.34223497465742886,-0.007182244085941392,0.018225273852741062,0.44810106680047884,0.8937682522304959
1638480618.0717418,23188,1638480618,71234157,world,2.5171617947041987,2.1328773529325153,0.3421060403881972,-0.006787597686438861,0.017688855211804768,0.44870329221386235,0.8934799317698099
1638480618.0818436,23189,1638480618,81249983,world,2.516486998841274,2.132150496247817,0.3418967159828592,-0.006106443887629242,0.01677779839674355,0.44857610022476324,0.8935662813306849
1638480618.091962,23190,1638480618,91300402,world,2.515893338615042,2.131487958361737,0.34223050726851656,-0.005230770875374996,0.0161330329962026,0.44899364806683295,0.8933739800766697
1638480618.1022816,23191,1638480618,101733748,world,2.515443617129365,2.1309070265015113,0.34218768828186763,-0.0049831832826997165,0.01567429824038231,0.4488309861923992,0.8934652931662209
1638480618.1121874,23192,1638480618,111351606,world,2.5150315681898854,2.130258281450154,0.34219637576095296,-0.005925002696169179,0.015384680754159372,0.44893050419767394,0.893414578089011
1638480618.122026,23193,1638480618,121565967,world,2.514505932042199,2.129647670797647,0.34215008277543735,-0.005996988790402447,0.014649486670808226,0.4488093307622074,0.8934873324712047
1638480618.1317472,23194,1638480618,131349848,world,2.5143044517648,2.12905282155617,0.34252045442864654,-0.005224268909438014,0.013468434365751987,0.4484160753850732,0.8937081915403627
1638480618.1420422,23195,1638480618,141270597,world,2.5138582675307153,2.128462142740056,0.3425542332395878,-0.005275138594274832,0.013564586876612507,0.4484214063046307,0.8937037637066633
1638480618.1521177,23196,1638480618,151279095,world,2.513658012637296,2.1278915073852733,0.34286001522433107,-0.004783300538140702,0.013226599891265818,0.4482262039159455,0.8938095139426406
1638480618.1617422,23197,1638480618,161238822,world,2.5131119715083643,2.1272717923337194,0.34275719242072566,-0.00479216917400247,0.012940126821622414,0.44814450851004384,0.8938546233726935
1638480618.1716957,23198,1638480618,171254456,world,2.512633129199736,2.126652221970298,0.3427309131471758,-0.004830218549979203,0.0125774032203873,0.4480610588815326,0.8939014293706835
1638480618.1819396,23199,1638480618,181408111,world,2.511781276465425,2.1258865451152684,0.34246059658058625,-0.004353760463568899,0.011697099208272891,0.44782261744540514,0.8940353046408649
1638480618.191735,23200,1638480618,191246265,world,2.511506625434409,2.1253539375450505,0.34264124137692614,-0.004037004116802549,0.011838919669138357,0.44779893824340017,0.8940467848423326
1638480618.2019534,23201,1638480618,201263755,world,2.511148013395991,2.124873158208826,0.3424673140933567,-0.00424707211176571,0.011698257477690275,0.44760466702656265,0.8941449408269909
1638480618.2119186,23202,1638480618,211259292,world,2.510809375518077,2.1242567185365524,0.342675254629929,-0.003980891789236382,0.011206675395995526,0.44734971363356396,0.8942800437441839
1638480618.221946,23203,1638480618,221511959,world,2.5097283566995556,2.1234579364521875,0.34192216372130685,-0.005034677812455392,0.010821072781867978,0.44690265931547907,0.8945029734438713
1638480618.2317526,23204,1638480618,231336065,world,2.5092560477002115,2.1228899269511294,0.3419088573448009,-0.005186011706393998,0.010453582871481015,0.4466717950159819,0.8946217834509346
1638480618.2424245,23205,1638480618,241353330,world,2.50891320314942,2.122237294928114,0.34217590179489826,-0.004842959883213538,0.0095533281018505,0.4463497141312137,0.8947945084524892
1638480618.2519248,23206,1638480618,251370212,world,2.508583661445596,2.121878312596674,0.34219614268044396,-0.004883623799086061,0.009455437645071525,0.4462264026416158,0.8948568279356492
1638480618.2617173,23207,1638480618,261287154,world,2.508340690059817,2.121342748977067,0.3421323066772125,-0.0052608741680437235,0.009333815591097373,0.4456805762733015,0.8951279389127552
1638480618.2718873,23208,1638480618,271283650,world,2.5081460533356283,2.1209193369760944,0.34225500659833497,-0.0050945838641590835,0.009033873120219393,0.4454051989148531,0.8952690339396976
1638480618.2818534,23209,1638480618,281283667,world,2.5077530394608694,2.1204512702220164,0.34214364613054105,-0.005431819871650556,0.009010323381855409,0.4453758278506568,0.8952819005049629
1638480618.292572,23210,1638480618,291561264,world,2.5076692364180646,2.120075981244551,0.34240418162460184,-0.005101611818121246,0.008636989121700845,0.44506157840053867,0.8954437823824508
1638480618.3021219,23211,1638480618,301602722,world,2.5073649606781507,2.119736264526637,0.3425149776560411,-0.004918523723211017,0.008181410503476082,0.44513577685103756,0.8954122027389292
1638480618.311761,23212,1638480618,311305415,world,2.507190454460779,2.1193441824313957,0.3424588336039881,-0.004712096903511799,0.008099051945795263,0.4448843554835497,0.895539006267364
1638480618.3217554,23213,1638480618,321262359,world,2.5068880554557005,2.1191109545333684,0.34235460169653514,-0.005508794308738622,0.007727158951974519,0.44460720582619223,0.8956753746348176
1638480618.3317616,23214,1638480618,331353515,world,2.5067354844662386,2.118812680306001,0.34253150600170323,-0.005274641559233711,0.007374306608501008,0.4445064179327491,0.8957297818957802
1638480618.3417983,23215,1638480618,341301626,world,2.506702661560849,2.1187196813811857,0.34296239966982156,-0.004904369297362322,0.006396357865953621,0.44491296921181767,0.895537538908878
1638480618.3519683,23216,1638480618,351296779,world,2.5063717361278,2.11850595687073,0.3427496552102252,-0.004917086796741623,0.006364265494374375,0.4448956385755496,0.8955463076572896
1638480618.3622491,23217,1638480618,361277787,world,2.5062745803709228,2.1182913551028215,0.3426616505685594,-0.0052762159794340424,0.0063623501983538985,0.44460968680682156,0.8956862779134401
1638480618.3722703,23218,1638480618,371270220,world,2.506220625666236,2.118213450614199,0.34275888429039786,-0.005208804911369154,0.006120088820081704,0.4443805419769265,0.8958020689731201
1638480618.3817942,23219,1638480618,381198522,world,2.506100779094476,2.118053628674991,0.3428965289316807,-0.005058334887482027,0.005854592928531322,0.444365109527785,0.8958123611695515
1638480618.3923407,23220,1638480618,391251949,world,2.5060260182832717,2.1180704973668094,0.3427949740815033,-0.005787930774168032,0.0059946798662144345,0.444182114294186,0.8958977692860953
1638480618.4026315,23221,1638480618,401542698,world,2.505951439421683,2.118044705150231,0.3428423191363525,-0.005788523321889487,0.005837754246764081,0.44416741204007465,0.8959060908960989
1638480618.4116867,23222,1638480618,411222510,world,2.5059123037797315,2.118045303008583,0.3428663809566269,-0.0058031791083398,0.005859743240626409,0.4441958362462092,0.8958917599704338
1638480618.4227746,23223,1638480618,421333731,world,2.505862022437598,2.118100050935221,0.3428712529476156,-0.00593179703827652,0.005590009889071561,0.4441182747349904,0.8959310931203094
1638480618.4316747,23224,1638480618,431282578,world,2.5060941203650446,2.1181849531830093,0.34320163122176894,-0.005456247798558609,0.004860041047789389,0.4438645356542337,0.8960641067186131
1638480618.4422932,23225,1638480618,441236897,world,2.5062983446405918,2.118356224859021,0.34324798675191587,-0.005284901893658446,0.005071077224964839,0.4439424550175931,0.8960253627106239
1638480618.452012,23226,1638480618,451254035,world,2.506380670177757,2.1185194146138806,0.3433795663734122,-0.006655147533617972,0.0049457807833789055,0.44390440839022366,0.8960357830329513
1638480618.4617732,23227,1638480618,461293253,world,2.506410218540683,2.1186147521474235,0.3433669233245233,-0.006763886623989286,0.0048506116537114525,0.4439395912109701,0.8960180582777112
1638480618.4717467,23228,1638480618,471292182,world,2.5064546949078843,2.1186883383387958,0.3433901735161483,-0.00625312484576591,0.0051487769975262585,0.44403632474201976,0.8959721707925381
1638480618.481625,23229,1638480618,481291111,world,2.5064834033934402,2.1187926482983817,0.3433393824777898,-0.006403406597673757,0.004820499093401234,0.4438945483559978,0.89604318484784
1638480618.4918087,23230,1638480618,491235606,world,2.5065504694653686,2.118866258477083,0.3433048532281324,-0.0058459992499416726,0.004839829684614723,0.4439004953410749,0.8960439445570413
1638480618.5017388,23231,1638480618,501252136,world,2.505943164332384,2.1186607597581077,0.3427192785774342,-0.005942686037232791,0.0052547040720682375,0.4437453255114886,0.8961178263233476
1638480618.511821,23232,1638480618,511296954,world,2.5062621459475025,2.1188028235525267,0.3430166234270642,-0.004816415247119302,0.005069466317314577,0.44357909417683633,0.8962079501235651
1638480618.5217102,23233,1638480618,521295179,world,2.5063648988649057,2.1190977712298924,0.34276704548282944,-0.006204081739864185,0.0055027609723414745,0.44398784545231285,0.8959944319481342
1638480618.5319848,23234,1638480618,531228858,world,2.5065309948007997,2.119191595639187,0.3429113709553283,-0.0059643522303967945,0.005395639816735457,0.44391678619270697,0.8960319193587796
1638480618.5418446,23235,1638480618,541269548,world,2.506649513871529,2.119286146303662,0.34288576165772794,-0.005999910390153006,0.005446337461686981,0.443966888187318,0.8960065516930295
1638480618.551765,23236,1638480618,551227035,world,2.506656925243012,2.119403485275723,0.34269810131280265,-0.006371481885213504,0.005383933901150495,0.443952511323521,0.89601148718299
1638480618.5616736,23237,1638480618,561205260,world,2.5068234043011532,2.119552947433306,0.34274184029363625,-0.007232418007489343,0.005171207936649895,0.4438870246759329,0.8960386487549458
1638480618.5717192,23238,1638480618,571312833,world,2.506731422415384,2.119497387102726,0.34258572969505846,-0.006222204027367472,0.005300864651108453,0.4435575787758188,0.8962086025705878
1638480618.581614,23239,1638480618,581239823,world,2.5068918745321143,2.119599275750841,0.34272243969449934,-0.0059794621390812,0.005283599043580062,0.4436023072505936,0.8961882182977102
1638480618.5916235,23240,1638480618,591278177,world,2.506930254228749,2.1197663085410117,0.34257202334777537,-0.006276051669714859,0.005294656037674341,0.4435173176916664,0.8962281889677826
1638480618.6019275,23241,1638480618,601257938,world,2.507091224828192,2.119829062729007,0.3426953574491063,-0.006075904372067493,0.005204297366758777,0.44353318642793643,0.8962222443189307
1638480618.61166,23242,1638480618,611237474,world,2.507164502787665,2.1199421677230097,0.3426789160069779,-0.006117502742992052,0.005160526380828811,0.4434927293523514,0.8962422351905005
1638480618.6219716,23243,1638480618,621232723,world,2.507271832711067,2.120047916513491,0.34268657505649885,-0.00608428832484337,0.005248849259376806,0.44351495002519675,0.8962309524453952
1638480618.6317594,23244,1638480618,631262885,world,2.5073221743502736,2.120142118519633,0.34269379241837006,-0.006134707554224104,0.0051885413068449215,0.4435160103013615,0.896230435216688
1638480618.641764,23245,1638480618,641237205,world,2.5074117778432172,2.1202308748404546,0.342698026717959,-0.006078998222294083,0.005265780660350313,0.44345294991793666,0.8962615681505767
1638480618.651605,23246,1638480618,651214085,world,2.507477823468357,2.1203125963060154,0.34269846204472204,-0.00610739905770021,0.00523900901024936,0.4434892973192883,0.8962435470476674
1638480618.6616967,23247,1638480618,661323578,world,2.5075609835187627,2.120375250686282,0.34268067670366037,-0.0060262662622436415,0.005252302925439048,0.44347814739816094,0.896249535681448
1638480618.6715522,23248,1638480618,671214887,world,2.507618851089005,2.120439313832892,0.3426779240761181,-0.006087550084436638,0.005257828596238587,0.4434921298537884,0.8962421702476249
1638480618.681634,23249,1638480618,681228984,world,2.5075933595595923,2.120508846561947,0.34250852369138834,-0.006316371009765812,0.005295920112525609,0.4434463785164586,0.896263000501564
1638480618.692019,23250,1638480618,691238922,world,2.507711762953468,2.1205166159193682,0.3427026303280845,-0.006008978264158289,0.005323715982117209,0.44352661272947036,0.8962252473731618
1638480618.701748,23251,1638480618,701333758,world,2.5077447650117293,2.120549099339854,0.34268754312761873,-0.006033467277394449,0.005228416193386183,0.44349456526098624,0.8962415029001336
1638480618.7116244,23252,1638480618,711220523,world,2.507766097457288,2.1205903526884597,0.3426622953634367,-0.0061027736577520765,0.005198197947079213,0.44344202364279317,0.896267207120382
1638480618.7215452,23253,1638480618,721231292,world,2.507801427263033,2.120627005142158,0.3426655217810295,-0.006049652208953436,0.005224762173765684,0.4434477394538758,0.8962645847860027
1638480618.7317848,23254,1638480618,731220045,world,2.507810700326711,2.120654839069581,0.3427073887162723,-0.005925513300761749,0.004936656863927953,0.4434204675431378,0.8962805401630426
1638480618.7419152,23255,1638480618,741206781,world,2.5086990230381367,2.1209218267030447,0.3428263006669624,-0.007676354571610284,0.006091443957954098,0.44297842315868025,0.8964787139173174
1638480618.7516224,23256,1638480618,751211374,world,2.5087623915961865,2.120897075013676,0.34304041742022934,-0.0073780948348557635,0.005651848413801955,0.44286000923334573,0.8965425994050457
1638480618.7620008,23257,1638480618,761271522,world,2.508698061393044,2.1208588285458196,0.3429731176819524,-0.0075074087227217515,0.005431297373843252,0.4428406775130179,0.8965524380441549
1638480618.7716126,23258,1638480618,771269875,world,2.5077407077285843,2.1206176547850335,0.3426599896677139,-0.006052428648629278,0.0052329498487449526,0.44345058266200726,0.8962631115247688
1638480618.7816882,23259,1638480618,781249475,world,2.507651306696094,2.120601317555739,0.3425224274767767,-0.006326429663936502,0.005262666624016092,0.44345271889624766,0.8962599883578634
1638480618.7916603,23260,1638480618,791251412,world,2.5076260825868135,2.120583909441961,0.3424990128415059,-0.006321195182233265,0.00531889893060701,0.4434662800789833,0.8962529833917111
1638480618.8018796,23261,1638480618,801221220,world,2.507725336625231,2.1205461327905804,0.34274674778647957,-0.005842740497203571,0.005491225223728125,0.4435723099353809,0.8962027196385955
1638480618.8118556,23262,1638480618,811274487,world,2.5075749767338693,2.12052820496032,0.3425236315950744,-0.0063796391622181195,0.0052713722966961874,0.4435021885871345,0.8962350816368947
1638480618.8216984,23263,1638480618,821248935,world,2.507621319605894,2.1204835524579524,0.34260190580740013,-0.006176963447517136,0.005551116336488784,0.44357097709759646,0.8962007690839539
1638480618.8315954,23264,1638480618,831240407,world,2.5075883841169793,2.120403415464988,0.34266302115769615,-0.006037093756745564,0.005163504756926618,0.443437016178079,0.8962703299790078
1638480618.8416228,23265,1638480618,841278090,world,2.5075602281884044,2.1203628027437795,0.34264873151326347,-0.005917650667317579,0.005258594145001437,0.4434372288561017,0.8962704684762401
1638480618.8517854,23266,1638480618,851234009,world,2.507469495159746,2.1203180702433975,0.34245118278294095,-0.005724369614392652,0.005402545822477954,0.4435405647060275,0.8962197339667388
1638480618.8617392,23267,1638480618,861202729,world,2.507492777924408,2.120288540779469,0.3426321386725226,-0.005829102584663632,0.005300398503098476,0.4433731006153113,0.8963025276041181
1638480618.8715932,23268,1638480618,871290141,world,2.5074703617014835,2.120267880054974,0.34264119049316294,-0.005865563821466823,0.005390114241939994,0.44350091371630085,0.8962385181202166
1638480618.881998,23269,1638480618,881239724,world,2.5073645840094505,2.120284391169174,0.342633120598387,-0.005629780584705264,0.005444052320457098,0.44366895355814234,0.896156530698473
1638480618.891649,23270,1638480618,891210108,world,2.507233380632078,2.1202929363236684,0.3426027759508592,-0.005658163556786827,0.005357684323833932,0.443868263318069,0.896058170669099
1638480618.902198,23271,1638480618,901720513,world,2.5071275573350706,2.120272716116641,0.3425873321683126,-0.005271115648220348,0.005285207402880672,0.44399085007520084,0.8960002271048999
1638480618.912128,23272,1638480618,911213118,world,2.5070079710036515,2.1202260622782645,0.3424762899603581,-0.005390076697833909,0.005377378860116298,0.44400014472921634,0.8959943651330747
1638480618.9217556,23273,1638480618,921296786,world,2.5070569669590683,2.1201511940416546,0.3427114182813019,-0.005351222727518403,0.005320454995260837,0.4438129101034756,0.8960876954849052
1638480618.9318602,23274,1638480618,931263362,world,2.507001780346918,2.1201116438004712,0.3426095053785917,-0.005241810347407354,0.005573198522762115,0.44382028864031564,0.8960831514283341
1638480618.9417064,23275,1638480618,941268659,world,2.5070735072856314,2.119967810555835,0.34271996473770583,-0.004137735935711604,0.005592844526404313,0.4439452114867831,0.8960269239422358
1638480618.9515767,23276,1638480618,951220514,world,2.5070226980355224,2.119939439907676,0.3425915525467048,-0.0038004509021728828,0.005938536088004399,0.4442903141039721,0.8958551262092914
1638480618.961548,23277,1638480618,961244116,world,2.507010054334616,2.1198762691470994,0.3427552790494792,-0.0030683526434257796,0.005997468452251831,0.44487196089373277,0.8955688438053131
1638480618.9717617,23278,1638480618,971275334,world,2.5068693646596696,2.119898701457303,0.34266059787902453,-0.002614468296023629,0.006446361893911244,0.4457281861448064,0.895141325741317
1638480618.9820104,23279,1638480618,981240438,world,2.5067290170702616,2.1199123637129684,0.3426883428115304,-0.002252910803304295,0.00647981161440975,0.44658609509797154,0.8947143656494513
1638480618.9918787,23280,1638480618,991255624,world,2.5065265490178747,2.1199724488818044,0.342671517843765,-0.0019617567346839997,0.006384212006444492,0.44735015177445825,0.8943339617027523
1638480619.002164,23281,1638480619,1349852,world,2.506411281804678,2.1200180979791505,0.3427256051830879,-0.0014743746303017178,0.006693366152382232,0.4481525952782768,0.8939308006855705
1638480619.0119374,23282,1638480619,11226984,world,2.5062383492585956,2.1200608321594716,0.3426645036867649,-0.0009442722545178303,0.0065186331931115175,0.4486423891463374,0.8936870942518247
1638480619.0216353,23283,1638480619,21220537,world,2.5061312904072666,2.120145599496265,0.342857515734201,-0.0007005673357769463,0.006408273235294595,0.4490982971850889,0.8934590996262802
1638480619.0319183,23284,1638480619,31256043,world,2.5059370013387916,2.1201766123858174,0.3428093189345631,6.618601711602829e-05,0.006390236372104349,0.44960542408885446,0.8932044128464666
1638480619.0417902,23285,1638480619,41259900,world,2.505614185924588,2.1202461689462715,0.34274537689757256,9.162061243109368e-05,0.0062520430603956335,0.45001709478860347,0.8929980503681177
1638480619.05168,23286,1638480619,51250316,world,2.505565573525193,2.1205060741375275,0.3428258865496752,0.000349264094860028,0.006236442209891853,0.45031088395651253,0.8928499832522029
1638480619.0616834,23287,1638480619,61225916,world,2.5052735537662425,2.1206215646036815,0.34273858140140645,0.00036151293701288436,0.006264985721476549,0.4507391838913928,0.8926336355791369
1638480619.0717528,23288,1638480619,71339474,world,2.505122201750129,2.1207892282257634,0.34270452173217314,0.00019498723350168116,0.006191200072461805,0.45105742511943653,0.8924734339274564
1638480619.0817585,23289,1638480619,81262111,world,2.5050821810804895,2.121001069557035,0.34273823791034347,0.00035884731526381167,0.006129190882232152,0.45126789230639275,0.8923674095466952
1638480619.0917218,23290,1638480619,91220719,world,2.504784439968054,2.1210983069582103,0.34272719081247655,0.00011439042311965222,0.006036311246876015,0.4516567837760509,0.892171339783136
1638480619.1026077,23291,1638480619,101260257,world,2.5048974826499055,2.121277267217517,0.34280967233560466,2.2163043066755434e-05,0.005938042290137244,0.4516610164516257,0.8921698635240065
1638480619.1117032,23292,1638480619,111222320,world,2.5050971333951684,2.121412082054018,0.3429388420642243,0.00010991198880687763,0.006052920000732293,0.4516119948971658,0.8921939005304967
1638480619.12203,23293,1638480619,121283844,world,2.505192075029283,2.1215498717907417,0.34283631020066224,-0.0006127700973863829,0.005908083379571258,0.45124595508086485,0.8923798558275206
1638480619.1316986,23294,1638480619,131250227,world,2.5053923158623297,2.121479980742054,0.3427771972004291,-4.66293144425797e-05,0.006018645311521602,0.4510780039177177,0.892464233521954
1638480619.1417673,23295,1638480619,141403242,world,2.5056607490747473,2.1214103479548148,0.34282519596692185,0.0004396728367971995,0.006081962802625996,0.45087415258439095,0.8925667005594438
1638480619.151706,23296,1638480619,151286198,world,2.505781229765055,2.121469475742327,0.34263542533151914,0.0003425224532547647,0.006213608503211832,0.45076837023437594,0.8926192638207975
1638480619.1617105,23297,1638480619,161244933,world,2.50595978947444,2.121493872972013,0.3426352448602184,0.00024995572698437694,0.006320430759681191,0.4507248153907329,0.8926405382168885
1638480619.1718938,23298,1638480619,171270327,world,2.5063369975759895,2.12168118569616,0.3429603803571257,-5.529487566434197e-06,0.0064934310101517016,0.4512127462288304,0.8923927907394693
1638480619.1819074,23299,1638480619,181271464,world,2.5061903786815303,2.121552868316056,0.3426792232904565,0.0004898842185510394,0.006487738487079244,0.4509554569637556,0.8925227420617282
1638480619.1915705,23300,1638480619,191265241,world,2.5062645643798036,2.1215949567324284,0.34272343863126925,0.0007365044106536229,0.006790714773075824,0.45123623847706423,0.8923783955470873
1638480619.2017095,23301,1638480619,201266858,world,2.5064529772686295,2.121795016560585,0.34304157880479585,0.00023365291231669,0.0066131584958012265,0.45164139946442194,0.8921750152469214
1638480619.2116146,23302,1638480619,211260250,world,2.506380848367775,2.1218458120822428,0.343070994009791,0.00021556837791234895,0.006557722429155134,0.45175729025515876,0.8921167527337064
1638480619.2215102,23303,1638480619,221216585,world,2.506263075541476,2.121914520428621,0.3429465671618187,-0.00012033245357097699,0.006599496628419541,0.45180184337563123,0.8920939000389666
1638480619.2316911,23304,1638480619,231204249,world,2.5060536703868634,2.1218597491073385,0.3428610887006832,3.8275022462335745e-05,0.006299628471799979,0.4512970499821045,0.8923515483785467
1638480619.2416222,23305,1638480619,241246028,world,2.506094895997308,2.121858735490174,0.3430461898941508,0.0003769760179306273,0.006196255271900149,0.4512012224967616,0.8924006505640365
1638480619.2515137,23306,1638480619,251208379,world,2.5060227723444264,2.121886120502596,0.34292980999653117,0.0005250708578245282,0.0065335411216484035,0.4513257774113079,0.8923351835409634
1638480619.261807,23307,1638480619,261286927,world,2.5061418279470313,2.122026270595752,0.3429416809858431,-0.00017112804786337924,0.0065245315555463295,0.4515607572549335,0.89221650046977
1638480619.272176,23308,1638480619,271232446,world,2.5061946230651553,2.1219909291111074,0.3430032064858675,-5.462901719219314e-05,0.006158833057588102,0.4513890872170467,0.8923059776401818
1638480619.281499,23309,1638480619,281213870,world,2.5062394248362367,2.1219518046896306,0.3430250150205511,0.0001493211230591787,0.0064045265988443645,0.45149808652542356,0.8922490894397864
1638480619.2915971,23310,1638480619,291277537,world,2.5062572526080036,2.121900031345179,0.3429831655259944,3.0350175130715254e-05,0.0062336376724411256,0.45139472081250914,0.892302609467681
1638480619.3016608,23311,1638480619,301217840,world,2.506220259419971,2.1218153872142733,0.3428292701348543,0.0002509133110170818,0.006323926195970846,0.45149763520597774,0.8922498699374454
1638480619.312226,23312,1638480619,311264098,world,2.5063451234651475,2.1217410490090267,0.3430448288492844,0.0006244448717918256,0.006465734296588424,0.4516545127664036,0.8921692695034675
1638480619.3217978,23313,1638480619,321218865,world,2.5063680981924104,2.1216949802212492,0.3430201074100085,0.0007596611064958917,0.006522461369634973,0.4517033499216765,0.8921440265350773
1638480619.332213,23314,1638480619,331232195,world,2.506272902639362,2.1217383616228798,0.3428615006480781,-8.060656729968242e-05,0.006364801700304071,0.45159787167211896,0.8921988820342186
1638480619.3416,23315,1638480619,341224467,world,2.5063543475689376,2.121623629571053,0.3430388182216472,0.0007364674232653695,0.0065460433123754784,0.45168448475013295,0.8921534246802475
1638480619.3517323,23316,1638480619,351216580,world,2.506332030636231,2.121595421297011,0.3430331485857041,0.0006262165406080537,0.006449651663453661,0.4516497034831107,0.8921718193206298
1638480619.3616683,23317,1638480619,361216085,world,2.5063189051782415,2.121585283699676,0.34305243191420937,0.0006688490648739656,0.0064870299917323074,0.4515305846112543,0.8922318097016233
1638480619.3718932,23318,1638480619,371344427,world,2.506108823185716,2.1215023449215815,0.34286042899303726,0.0003087468406180369,0.006567114355741482,0.45107776696738555,0.892460433762833
1638480619.3816164,23319,1638480619,381266936,world,2.5060911361141147,2.121469381073686,0.34284068769702897,0.00031346826916620486,0.006569651898888737,0.4509971882902408,0.8925011358905202
1638480619.3920934,23320,1638480619,391232712,world,2.506086750885714,2.1213579961423927,0.34288551734328315,0.0008596149687489734,0.006221939133561755,0.450907686464695,0.8925484898998934
1638480619.4025335,23321,1638480619,401281339,world,2.5060780457763134,2.12139651914629,0.34292414992794473,0.00031938894363937084,0.00623715190270963,0.45086449536228645,0.8925705589747827
1638480619.4115832,23322,1638480619,411226857,world,2.5059981915219574,2.1213741196897304,0.34274325243247206,0.0006258707506400302,0.006380158351390444,0.451040516585479,0.8924804503536865
1638480619.4215662,23323,1638480619,421255963,world,2.5059583336109466,2.121410822999783,0.3428055121640349,5.590161569838975e-05,0.006280030145087402,0.4511064836856797,0.8924480368475959
1638480619.4316301,23324,1638480619,431247980,world,2.505970039037357,2.1212980582926257,0.3428709095481584,0.000868491272643586,0.006238519021747175,0.45122640797689045,0.8923872787907714
1638480619.4415457,23325,1638480619,441245916,world,2.5059998780778137,2.1212977727986444,0.3428640365045991,0.0006949443631103301,0.00622678449701064,0.45121146789749916,0.8923950669097986
1638480619.451689,23326,1638480619,451225965,world,2.5060078310690623,2.12129314638822,0.3428523161247258,0.0006974533677476468,0.006216339808477797,0.451135034448867,0.8924337798240298
1638480619.461738,23327,1638480619,461276159,world,2.506024237941311,2.1212708261190723,0.3426986942578128,0.00040432965924576674,0.00624294899834294,0.45098229831270836,0.8925109683997828
1638480619.4721496,23328,1638480619,471288913,world,2.506093058420705,2.1212722009616796,0.3427177124404869,-0.00016471891280906784,0.006197956699106685,0.45067342283152445,0.8926673647858724
1638480619.4818094,23329,1638480619,481232511,world,2.5062637635287053,2.1211149211387808,0.34301017508862724,0.0009026967865739046,0.005678889748940019,0.4505560492895941,0.8927296241294359
1638480619.4916666,23330,1638480619,491261201,world,2.506225073849011,2.1211685596795373,0.3428848054014981,8.15546188092901e-05,0.006002398171068482,0.4504680438582004,0.8927723707797003
1638480619.5016124,23331,1638480619,501221760,world,2.5062117263616575,2.1211213502400406,0.3428274640980663,0.00026088401086494,0.0059095493897742225,0.45052643634190354,0.8927434902157548
1638480619.5115888,23332,1638480619,511208177,world,2.5061605493918497,2.1211204614477412,0.3427185331061876,-0.00023838875363309988,0.005982210234088061,0.45065507098046503,0.8926780849394195
1638480619.5216346,23333,1638480619,521220898,world,2.5062287477955967,2.1210145427868525,0.34286452515730126,-3.5987689718179987e-06,0.005780806081901417,0.45051054227501625,0.8927523920814568
1638480619.5316741,23334,1638480619,531214963,world,2.50626120944016,2.1210099980004973,0.34286739550058215,-0.0007146018459879591,0.005309401224961532,0.45005042436504616,0.8929870744482677
1638480619.5417342,23335,1638480619,541276582,world,2.5063011930417405,2.120885277472501,0.3427116622880329,-0.0007981913876629005,0.0053965920099886345,0.44979950679799713,0.8931128950863185
1638480619.5516198,23336,1638480619,551233045,world,2.506451831071942,2.1207534210854972,0.3427726740196283,-0.0008133501002245247,0.004816024800795691,0.4491041859071198,0.8934660455593353
1638480619.5618174,23337,1638480619,561376876,world,2.506673071056821,2.120681390258007,0.3429906945300401,-0.0010822524012400964,0.004209604466056136,0.44836757577198993,0.8938387018675844
1638480619.5724018,23338,1638480619,571709898,world,2.5068066296409346,2.1204888870411347,0.3428792000272266,-0.0009192904564747085,0.003905554703266046,0.4476792419234283,0.8941852145380067
1638480619.581692,23339,1638480619,581286282,world,2.506869389937912,2.1203376310032818,0.3426006740377784,-0.0014864189787063414,0.004024186684641123,0.4470470605940818,0.8945001520929654
1638480619.591694,23340,1638480619,591280314,world,2.506969604405717,2.120266856735267,0.34249296190985745,-0.0015989252794851145,0.004250461041501727,0.44624275469889496,0.8949004307170868
1638480619.6018353,23341,1638480619,601249066,world,2.5071674915831856,2.1200327843974143,0.34241124293661707,-0.0021121466287002517,0.0035926998298165037,0.44587813969852064,0.895083971414715
1638480619.6116872,23342,1638480619,611276284,world,2.507303870365082,2.1200065574151514,0.3425368245797753,-0.002505577120692073,0.0037770033757694695,0.4452202302484901,0.8954096285534756
1638480619.6220422,23343,1638480619,621235019,world,2.507459082106405,2.1197966045568153,0.3424904082981243,-0.0027131460288852675,0.003226082060012903,0.4449960615407709,0.8955226052123813
1638480619.6317317,23344,1638480619,631291838,world,2.507605837960334,2.1196037849046014,0.34253173714591567,-0.002561358948066688,0.003211028730934176,0.4449263325063642,0.8955577521172292
1638480619.6416793,23345,1638480619,641280654,world,2.5076484371106704,2.119472143878707,0.3424697724050553,-0.0024248156652856515,0.0027839262150941456,0.44448962566869554,0.895776391013249
