Time,header.seq,header.stamp.secs,header.stamp.nsecs,header.frame_id,pose.position.x,pose.position.y,pose.position.z,pose.orientation.x,pose.orientation.y,pose.orientation.z,pose.orientation.w
1638480616.6220942,23806,1638480616,621544864,world,-1.2303199105588634,-0.6068104869170735,0.47938153679186846,-0.0006739974485072237,-0.0008626459944986066,0.00018985137691095454,0.9999993827627006
1638480616.6320071,23807,1638480616,631547442,world,-1.2303100294492029,-0.6067848253360805,0.47938312895536506,-0.0006428733244000102,-0.001032160188107635,0.00029341581933788817,0.99999921763289
1638480616.6419623,23808,1638480616,641455039,world,-1.2303358012243415,-0.6068004838866056,0.4793796579717675,-0.0006267721600381826,-0.0010214683219308253,0.0002239393016674638,0.9999992568048819
1638480616.6521966,23809,1638480616,651459409,world,-1.2304357909303307,-0.6067681434957783,0.4791773755935343,-0.0018345071771605985,-0.004970704394715476,0.0011769666723761298,0.9999852706068674
1638480616.6621904,23810,1638480616,661457634,world,-1.2303402021875256,-0.6068211785457508,0.47936642486566977,-0.0007425476478247957,-0.000748764636717708,0.0003618276004305654,0.9999993785274555
1638480616.6720774,23811,1638480616,671418930,world,-1.2303160681485656,-0.6068284897254168,0.479383713560925,-0.00078062482594517,-0.0006248973559742664,0.000308756536735712,0.9999994523986384
1638480616.6820352,23812,1638480616,681456357,world,-1.230319814581046,-0.6068099275644088,0.47938917566409817,-0.0006723594441198467,-0.0008259988541990919,0.00024302004768805545,0.9999994032997858
1638480616.6921031,23813,1638480616,691394932,world,-1.2303012445861483,-0.6068054565899894,0.47934991947032674,-0.000834984074762281,0.000412311529131158,0.00022427156005696582,0.9999995412514273
1638480616.7025158,23814,1638480616,701523946,world,-1.230311571782667,-0.6067889447193077,0.479375684399901,-0.0006874981797785283,-0.0006219935517842747,0.0002596195295979039,0.9999995365338797
1638480616.712029,23815,1638480616,711397494,world,-1.2303118796579555,-0.6067754184681903,0.47935685750373885,-0.0006636186994236595,-0.0007175344014679091,0.0002511101586677492,0.9999994908490167
1638480616.7219656,23816,1638480616,721442057,world,-1.2303109333253384,-0.606795779692845,0.4793353468984042,-0.000825532361800663,0.00035216951851562263,0.00017358961997132719,0.9999995821697097
1638480616.7350173,23817,1638480616,731347479,world,-1.230329625664023,-0.6067983053279841,0.4793847903553294,-0.0006804576496512647,-0.0008117992021405897,0.00021763011033886282,0.999999415298118
1638480616.7425373,23818,1638480616,741650644,world,-1.2303179362446233,-0.6068109131540923,0.47939496452646585,-0.0006806690650995364,-0.0008182842237566025,0.00017626292866001036,0.9999994180157972
1638480616.7522898,23819,1638480616,751549890,world,-1.2303254261077787,-0.6068147882662721,0.479383211753482,-0.0006389582311681663,-0.000874232229059103,0.00020252161375380296,0.9999993932175082
1638480616.7622104,23820,1638480616,761436526,world,-1.230281132935941,-0.606771232177956,0.47933501119905225,-0.0008286504350923857,0.0006049937516608083,0.00027111838423662623,0.9999994369077608
1638480616.7724419,23821,1638480616,771495074,world,-1.2303108628771622,-0.6067889628687037,0.47936447810222493,-0.0006057480537597363,-0.0010291675435480506,0.00025368152686897126,0.9999992547642953
1638480616.7824152,23822,1638480616,781536693,world,-1.2303135312930058,-0.6067812908131128,0.4793730478665283,-0.0006202682113770689,-0.0009564147829327761,0.000296182375127443,0.9999993064068144
1638480616.7926667,23823,1638480616,791505349,world,-1.2303143136658903,-0.60680329105419,0.47937950234982735,-0.0007055478026630225,-0.0009929502311552822,0.0003886057275173085,0.9999991826185287
1638480616.8021593,23824,1638480616,801548152,world,-1.2303272179673377,-0.6068137393632438,0.479381639366778,-0.0007221321818717105,-0.0008849072010201657,0.0002260405785019947,0.9999993221847775
1638480616.8126397,23825,1638480616,811569930,world,-1.2303060480496788,-0.6067818684035882,0.4793699321546363,-0.000707710130975751,-0.0008953360454590688,0.0002753568765565904,0.999999310848926
1638480616.8226333,23826,1638480616,821512377,world,-1.230319532238547,-0.6067978525194945,0.47936003799012317,-0.0006805140745544206,-0.0009026962682019328,0.00023077080379599237,0.9999993343922174
1638480616.832455,23827,1638480616,831492842,world,-1.2303416687407207,-0.6068073494062932,0.47937071959596594,-0.0007071168421323608,-0.0007064771179332834,0.0002033340940120111,0.9999994797654145
1638480616.8423119,23828,1638480616,841725284,world,-1.2302960851792353,-0.6067951343432173,0.47938815176400695,-0.0007664208351812571,-0.0008151176596657716,0.00032074645035610496,0.99999932265178
1638480616.852325,23829,1638480616,851831962,world,-1.2302942797022902,-0.6067951197203462,0.47936200943655055,-0.0007916732879108887,0.0002796175887497184,0.0002105366266211177,0.9999996253707989
1638480616.8627582,23830,1638480616,861578721,world,-1.2302945923717843,-0.606786454524963,0.47938737256580854,-0.0006494796194112509,-0.0007431180895884268,0.00027966660220348405,0.999999473869022
1638480616.8727188,23831,1638480616,871603603,world,-1.2302962166531315,-0.6068086491072224,0.47933108165720933,-0.0008318004832716649,0.0005134178853137203,0.00022443265075190375,0.9999994970698819
1638480616.8824043,23832,1638480616,881654439,world,-1.2303494633604548,-0.6068414638234144,0.4793491129843385,-0.0006307990129381178,-0.0011723572689618265,0.00034223148965068775,0.9999990552738771
1638480616.8927732,23833,1638480616,891734011,world,-1.2303249039496558,-0.6067871099284641,0.47935083589344835,-0.0006742674973320651,-0.0008464760344373995,0.000288648449507487,0.9999993727616722
1638480616.9029624,23834,1638480616,902094075,world,-1.2303157135731189,-0.6067844726871464,0.4793890542073954,-0.0006524873809492555,-0.001007301208157401,0.00026613456021348043,0.9999992443881593
1638480616.9126654,23835,1638480616,911726910,world,-1.23029386800684,-0.6067860891270345,0.47938074823634275,-0.0008071000420252594,0.00023917856250704257,0.00014574614199296422,0.9999996350705331
1638480616.9226792,23836,1638480616,921528231,world,-1.2302712587562494,-0.6067817443913922,0.4793671741425353,-0.0008159910345936544,0.000351811174029347,0.0002759342842740623,0.9999995671238063
1638480616.93275,23837,1638480616,931451573,world,-1.2302807603556687,-0.6067841923005967,0.47934012093269757,-0.0008663031870128915,0.0005741286615619654,0.0002731286657027105,0.9999994226477336
1638480616.9425392,23838,1638480616,941519273,world,-1.23033150673771,-0.6068244148125015,0.4793468463776497,-0.0006604704640288049,-0.0007946501090112783,0.00020690009676029342,0.9999994447510061
1638480616.9540098,23839,1638480616,951529691,world,-1.2303107841487912,-0.606802483949495,0.4793145704931209,-0.0008654292651475391,0.0005044109868762219,0.00021875854990546667,0.9999994743730819
1638480616.962405,23840,1638480616,961638481,world,-1.230284700759071,-0.60676861850952,0.4793418479189174,-0.0007871829127438656,0.00035938224984659003,0.0002872727318181099,0.9999995843308326
1638480616.9726114,23841,1638480616,971883980,world,-1.2303062940550529,-0.6067781274100489,0.47939973011556863,-0.0006875139121578742,-0.0008917583379897872,0.0002493895927922584,0.9999993349480379
1638480616.9831834,23842,1638480616,981502222,world,-1.2303075548914844,-0.6067725322670988,0.4793994021153602,-0.0006449943680666806,-0.0009742325317724275,0.00026376996966858546,0.999999282639064
1638480616.99355,23843,1638480616,991742153,world,-1.2303137505701647,-0.606783411544926,0.4793812329840174,-0.0006664813796862313,-0.0009436425312468115,0.0002623565641194058,0.9999992982549423
1638480617.0027962,23844,1638480617,1670327,world,-1.2302856202532786,-0.6067763397565501,0.4793301861391825,-0.0008088126980436405,0.00024311779220376528,0.0002670028871365522,0.9999996077125315
1638480617.012737,23845,1638480617,11607078,world,-1.230306528945247,-0.6068039728278715,0.4793251660659715,-0.0008434030422506482,0.0005058014425879666,0.0002288557158531728,0.9999994902305053
1638480617.0231357,23846,1638480617,21649465,world,-1.2303105524933828,-0.6067802528883629,0.4793666802565516,-0.000680573691926572,-0.000860573026238836,0.00024380300794745079,0.9999993683966054
1638480617.0331025,23847,1638480617,31506180,world,-1.2303083081226311,-0.6067794972441084,0.4793791998518721,-0.0006984449613100076,-0.0008150891914110063,0.0002574847478720729,0.9999993907527399
1638480617.0439582,23848,1638480617,41635482,world,-1.2303455784786717,-0.6068237234509523,0.47938421772618806,-0.0006659033374092205,-0.0010490125703746403,0.00035801741223429967,0.9999991639841032
1638480617.0530233,23849,1638480617,51560008,world,-1.230333393817838,-0.6068237023320884,0.4793765968609472,-0.0006716942768326881,-0.0010644746813128982,0.0003320629856287632,0.9999991527269535
1638480617.06311,23850,1638480617,61963850,world,-1.230305041720493,-0.6067944964552239,0.47934898586422736,-0.0008555606318523469,0.0005065815594071463,0.00023352184506749855,0.9999994784292026
1638480617.0729318,23851,1638480617,71527945,world,-1.230305099038264,-0.6067825660595089,0.4793765293416367,-0.00065615128401969,-0.0006812058736315122,0.00022303610984195484,0.9999995278393605
1638480617.082752,23852,1638480617,81566396,world,-1.2303161474417768,-0.6068078874438895,0.4793713817625125,-0.0006555107349374833,-0.0009843195078368411,0.00018465313837143186,0.9999992836617442
1638480617.0930398,23853,1638480617,91705651,world,-1.2303016892014647,-0.6068087357296722,0.4793288412394978,-0.0008143192913286058,0.0005052370613642675,0.00024398291988466032,0.9999995110458498
1638480617.102717,23854,1638480617,101604128,world,-1.2303123721285623,-0.6067866004737664,0.4793690228354362,-0.0006437552730887378,-0.0011618634043860136,0.0002987949247843841,0.9999990731866559
1638480617.112701,23855,1638480617,111530766,world,-1.2303177151407385,-0.6067783054111923,0.4793758283859903,-0.0006339517079571875,-0.0009689438368491791,0.0002780433502573054,0.9999992909722328
1638480617.123121,23856,1638480617,121708038,world,-1.2303130256174333,-0.6067749358955834,0.4793924484488932,-0.0006548144435916322,-0.0007347324572656924,0.00024006612756023084,0.9999994868771259
1638480617.133224,23857,1638480617,131988899,world,-1.230279543013507,-0.606765414566585,0.4793666101075317,-0.0008250782295207539,0.00038703323029751365,0.0002575030081300173,0.9999995515715969
1638480617.1425736,23858,1638480617,141426077,world,-1.23031434553548,-0.606811978282174,0.47938049090122414,-0.0006956852098518898,-0.0007143718312732653,0.00023005128766042488,0.9999994763855532
1638480617.1535144,23859,1638480617,151488817,world,-1.2303031947357217,-0.6067924826399655,0.47935252729459255,-0.0006333948321234021,-0.0010521600404214074,0.00025721249625282837,0.999999212805674
1638480617.1625433,23860,1638480617,161556293,world,-1.2303316073274768,-0.6068141300427272,0.4793607717293759,-0.0006174894045744687,-0.0009930460697049766,0.00020235772021685703,0.9999992958085979
1638480617.172209,23861,1638480617,171588887,world,-1.230317957397818,-0.6067869170981757,0.47937832755047727,-0.0006340583631202367,-0.0011441814334965355,0.00023233738585959625,0.9999991174187
1638480617.1822217,23862,1638480617,181356255,world,-1.2303105865135544,-0.6067610650449806,0.4793958712807697,-0.0006720156311293861,-0.0006123985828096889,0.000277676713901159,0.999999548129203
1638480617.19279,23863,1638480617,191475285,world,-1.2303195926339598,-0.6068010326442026,0.4794067027179297,-0.0006684863790316748,-0.0007760574478568911,0.00018115930958979073,0.9999994590209053
1638480617.2020578,23864,1638480617,201339168,world,-1.2302981237888435,-0.6067775824148215,0.4793894692929884,-0.0005892235098120521,-0.000994411535658429,0.000273508201370407,0.9999992945770598
1638480617.2122788,23865,1638480617,211407796,world,-1.2302918913476983,-0.6068064971371023,0.47932526010899645,-0.0008453826556673643,0.00046369270180986313,0.00024900390148761245,0.9999995041570274
1638480617.2222278,23866,1638480617,221430886,world,-1.2302927711858498,-0.6067954874486566,0.47931977062592185,-0.0007785822182223107,7.116882579546339e-05,0.0002725267403784567,0.999999657236893
1638480617.232128,23867,1638480617,231352724,world,-1.2303166847158007,-0.6067939374353297,0.4793627753582066,-0.000714748523099984,-0.0008039361105433116,0.00023195147044651932,0.999999394509714
1638480617.242222,23868,1638480617,241429737,world,-1.2303246624769468,-0.6067972918293915,0.47938546868332466,-0.0006559280529962596,-0.001009681245281722,0.00019110941619435225,0.9999992568894055
1638480617.2527652,23869,1638480617,251481532,world,-1.230321350559835,-0.6067879596558747,0.479400754052886,-0.000660815470863254,-0.0008769403751965962,0.00020250642353102338,0.9999993766446258
1638480617.2622645,23870,1638480617,261927871,world,-1.2303031692799693,-0.6067812185603727,0.47939187357832413,-0.0006423765842076904,-0.0008434030656078806,0.00027699373176856383,0.9999993996488528
1638480617.272266,23871,1638480617,271477662,world,-1.23033549103376,-0.6068179982785863,0.47937619605117265,-0.0006879044116232544,-0.0008169046584815485,0.00024532532443467624,0.9999993996347121
1638480617.2822628,23872,1638480617,281603188,world,-1.230306511259922,-0.6067918929156385,0.47936105609040514,-0.0007000708365270357,-0.0008929043298350353,0.000241665208767639,0.9999993271100779
1638480617.2924972,23873,1638480617,291451551,world,-1.2302844016270262,-0.6067901110109335,0.47933231705761564,-0.0008492295368675427,0.0004938285747147637,0.000298625633484711,0.9999994728824929
1638480617.303239,23874,1638480617,301406638,world,-1.2303196359045725,-0.6067758393246873,0.47939214945922404,-0.0006789235156709934,-0.0007877225310271913,0.00028610271866754636,0.9999994183504852
1638480617.312184,23875,1638480617,311569702,world,-1.230307309479528,-0.6067835868098219,0.47939650157552316,-0.0006066333581336927,-0.0010247514343586033,0.00027372812181185535,0.9999992534764124
1638480617.3227084,23876,1638480617,322126606,world,-1.2303339018113724,-0.6068024273512092,0.4793856112599372,-0.0006072487760444257,-0.0010002332917632437,0.0001863566825911867,0.9999992980264902
1638480617.3325343,23877,1638480617,331940375,world,-1.2303067980382298,-0.6068204471461563,0.4794018882005347,-0.0004832911677281817,-0.0023012201179830826,0.00017749801331456386,0.9999972196511704
1638480617.34218,23878,1638480617,341444596,world,-1.2303307493873277,-0.6068207483743496,0.4793746272520734,-0.0006565944437889389,-0.0009755123392300839,0.00017067112251255168,0.999999294065141
1638480617.3521774,23879,1638480617,351402276,world,-1.2303263393116581,-0.6068158727022663,0.4793749115875176,-0.0006867417864425579,-0.00048629146933152305,0.00022857838043096668,0.9999996198290525
1638480617.3625712,23880,1638480617,361790309,world,-1.2304354751836764,-0.6067730121514628,0.47918755976471744,-0.0018505351166218033,-0.004874447244693344,0.0011843160794468277,0.9999857062374766
1638480617.372691,23881,1638480617,371456840,world,-1.2303287106881695,-0.6067916931791923,0.479385708373936,-0.0006673133010600902,-0.0011546814497202728,0.00038200373005624696,0.9999990377379663
1638480617.3830216,23882,1638480617,381411224,world,-1.2303177727995722,-0.6067871569420384,0.479388888161758,-0.0006790117447993261,-0.0008046190285641133,0.00028312214917885115,0.9999994056863826
1638480617.393037,23883,1638480617,391538990,world,-1.230321441860276,-0.6068285268149174,0.47937751401461853,-0.0006490441393597648,-0.0009671668251752711,0.00019770381140181415,0.9999993021213767
1638480617.402641,23884,1638480617,401579585,world,-1.2303198326125842,-0.6067875625252293,0.4793657964107631,-0.0006808698728507887,-0.000889926343024709,0.00027161186439808875,0.999999335336937
1638480617.4124334,23885,1638480617,411591922,world,-1.2302811047803761,-0.6067757844199124,0.47933301317096266,-0.0008549275283031809,0.0005805423503187706,0.00026415731921762927,0.999999431145044
1638480617.422654,23886,1638480617,421598436,world,-1.2303275057846006,-0.6067989531731574,0.47937884456218144,-0.0007186942357711383,-0.000774733695801339,0.0001625115399417348,0.9999994284279844
1638480617.4328346,23887,1638480617,431792604,world,-1.2303385492206622,-0.6068053509970163,0.4793944906008029,-0.0006697538144265882,-0.0009669681434312326,0.00019078859491171118,0.9999992900008228
1638480617.4429023,23888,1638480617,441611750,world,-1.2303185143027502,-0.6067954483720172,0.47940016582957945,-0.0006138626851199214,-0.0010284454319985216,0.0002747986724008319,0.9999992449788584
1638480617.4526398,23889,1638480617,451514804,world,-1.2303311094192524,-0.6068141705806818,0.47937416806157224,-0.0006565115356251863,-0.000995637189294944,0.0002236288341646472,0.9999992638443967
1638480617.4628544,23890,1638480617,461449154,world,-1.2303060197536264,-0.6067875738825611,0.4793606882140035,-0.0006970767416411985,-0.0008358499765485837,0.0002638519593336708,0.9999993729102918
1638480617.4729652,23891,1638480617,471982249,world,-1.230271995761915,-0.6067696365803622,0.4793372804236087,-0.0008075514314974437,0.00030370220917954135,0.00028716813374839785,0.999999586579973
1638480617.4821992,23892,1638480617,481536328,world,-1.230288989965358,-0.6067737558931584,0.4793466858469783,-0.0008284937386787066,0.0005246060225266856,0.00027308451825529517,0.9999994819056118
1638480617.4929922,23893,1638480617,491538777,world,-1.230342949814198,-0.6068288953532799,0.47937395211668066,-0.0007187232447111826,-0.0008914110130345062,0.0003176707986480992,0.9999992939540343
1638480617.5027466,23894,1638480617,501453703,world,-1.2303282652509897,-0.606785237809394,0.47939429943707806,-0.0005883311940271997,-0.0010598167318481679,0.0002520767631460526,0.9999992335558097
1638480617.5125113,23895,1638480617,511500538,world,-1.2303302703245995,-0.6068057521983563,0.4793833801836211,-0.0006520812513026377,-0.0009209356527029235,0.0002470225443491171,0.9999993328234915
1638480617.5222383,23896,1638480617,521515435,world,-1.230323364074921,-0.6068143491657345,0.4793794343563949,-0.0006429287325976326,-0.0008547051959847774,0.0002474475435721657,0.9999993974455115
1638480617.5321121,23897,1638480617,531394776,world,-1.2303849981717287,-0.606770602578759,0.4791460444448683,-0.0019757981514525367,-0.004000557437001904,0.0012141267913560166,0.9999893087718452
1638480617.5424082,23898,1638480617,541414506,world,-1.2302960525992614,-0.6067871913487138,0.47936330905182706,-0.0006900312591495383,-0.0006593566495534775,0.0002589657525562395,0.999999511021085
1638480617.5524008,23899,1638480617,551631107,world,-1.2303024287243356,-0.6068159743198752,0.4793360022203003,-0.0008544841584563208,0.0002754359228522651,0.00037919667075037407,0.9999995251007674
1638480617.5627432,23900,1638480617,561422700,world,-1.2303018064618847,-0.6068019770197686,0.47935205232334754,-0.0008719501431315184,8.387954097257869e-05,0.00038809719451980023,0.9999995410237638
1638480617.5724878,23901,1638480617,571742154,world,-1.230341084660068,-0.606803827360393,0.4793883422209888,-0.000605131036302871,-0.0009859192883151632,0.0002212428994862824,0.9999993064153423
1638480617.5822787,23902,1638480617,581823231,world,-1.2303264159898395,-0.6067979936766243,0.47937117436454646,-0.0006996918320290555,-0.000871802092783216,0.00037730491009177914,0.9999993040164858
1638480617.592653,23903,1638480617,591400735,world,-1.2302908421906549,-0.6067994556313164,0.4793422966978035,-0.0007923958083467873,0.00022585480699879987,0.0002172665901133747,0.9999996369467931
1638480617.6025229,23904,1638480617,601570615,world,-1.2302946335963758,-0.6068261873479165,0.4793373161191439,-0.0008456284851264203,0.00019441770246974823,0.00035880171226650636,0.9999995591876796
1638480617.6126318,23905,1638480617,611488164,world,-1.2303111309082078,-0.6068055286691667,0.4793703012318638,-0.0006778448816983164,-0.0008817164503287634,0.00023659655665848002,0.9999993535620345
1638480617.622424,23906,1638480617,621524567,world,-1.2303295650394375,-0.6068063618654739,0.4793719465512011,-0.0006720986818052181,-0.0008623715210258266,0.00020407440907720242,0.9999993814759873
1638480617.632285,23907,1638480617,631510120,world,-1.2303290627509063,-0.6067886264013017,0.47937885200213787,-0.0006467115078809833,-0.0008432419859380813,0.0002528357590389603,0.999999403390451
1638480617.6424103,23908,1638480617,641555291,world,-1.2303133642801036,-0.6067805561898634,0.47938627874078693,-0.0006621630230266083,-0.0009353316943472288,0.000269626307069445,0.9999993069979634
1638480617.6520805,23909,1638480617,651535819,world,-1.2303031699670375,-0.6068188202430577,0.47934123608800067,-0.000815850000004381,0.00047798451142762365,0.00025258821533926637,0.9999995210592744
1638480617.6622517,23910,1638480617,661385078,world,-1.230297369229317,-0.6067694810553762,0.4793574197372275,-0.0006720915812976358,-0.0010986909838075582,0.000250479510944547,0.999999139215151
1638480617.6724453,23911,1638480617,671523789,world,-1.23030826041402,-0.6067904059983712,0.4793663192537259,-0.0006460672823308037,-0.0009260815513520833,0.00026847846381183215,0.9999993264444439
1638480617.6831505,23912,1638480617,681657155,world,-1.2302978071762163,-0.6067999747319407,0.4793517449334113,-0.0008811134645513873,0.00019021118708316892,0.0003702596996399136,0.9999995251831482
1638480617.6927154,23913,1638480617,691730007,world,-1.2303247133224524,-0.606806618140057,0.47939520469623575,-0.0006244801777734253,-0.0008318183254313407,0.00022589752260787844,0.9999994335363848
1638480617.7022398,23914,1638480617,701498847,world,-1.2303040789505884,-0.6067921203135928,0.4793726179358716,-0.0006935233974300483,-0.0008335714888155844,0.00025996165933426325,0.9999993783017099
1638480617.7121916,23915,1638480617,711467311,world,-1.2303103440385734,-0.6067784649640903,0.4793627979368289,-0.0006557470636373412,-0.0008928691811737519,0.00023977926146605272,0.9999993576429534
1638480617.7221882,23916,1638480617,721385117,world,-1.2303186743217305,-0.606815774642889,0.4793601211330875,-0.0006600562928314961,-0.0009417290893498648,0.00019285555738998909,0.9999993201391422
1638480617.7325294,23917,1638480617,731606807,world,-1.2303255676903886,-0.6067820185866549,0.4793765899545468,-0.0006753772380087642,-0.0008547113628817948,0.00028457481678341695,0.9999993661754224
1638480617.7429178,23918,1638480617,741469954,world,-1.2303051967069163,-0.6067886524471732,0.4793722945987899,-0.0007116547372936208,-0.0009486921143021973,0.00024058700782376326,0.9999992678240816
1638480617.7530444,23919,1638480617,751546519,world,-1.230271991910132,-0.606765732800119,0.4793511279793725,-0.000810317630302078,0.0005091001726171302,0.00027061555201176517,0.9999995054846654
1638480617.762168,23920,1638480617,761602346,world,-1.2303123082481937,-0.6067759205758186,0.47938268346854973,-0.0006327245546295021,-0.0009233723737986013,0.0002767707140557777,0.9999993352203136
1638480617.7724884,23921,1638480617,771419636,world,-1.2303008050043789,-0.6067894622029916,0.479385625112425,-0.0006758133691937844,-0.0009192013482866194,0.00026308730024689404,0.999999314564887
1638480617.7822278,23922,1638480617,781438502,world,-1.2303243190725008,-0.606791053626985,0.47936800609625885,-0.0006454682480660741,-0.0008341350257060246,0.0002742096154561337,0.9999994061991171
1638480617.7920232,23923,1638480617,791401013,world,-1.2303291234950788,-0.606824997473999,0.47934819116830196,-0.0006858419050599153,-0.0006064091576077177,0.00017416246517912556,0.9999995657780312
1638480617.8023899,23924,1638480617,801500586,world,-1.2303159731466173,-0.606803392973684,0.47935494753340896,-0.000666234265733432,-0.0008337200436734922,0.0002414388194407698,0.999999401374865
1638480617.812418,23925,1638480617,811466906,world,-1.230287951940251,-0.6067846167020365,0.47934515054300425,-0.0008640618762064653,0.0004660570950744776,0.00022735183652069436,0.9999994922493715
1638480617.8226452,23926,1638480617,821677332,world,-1.2304143737721083,-0.6067739104942539,0.47920563455325477,-0.0018261516257668112,-0.004953177533945246,0.0012155215570041262,0.9999853267472987
1638480617.8322887,23927,1638480617,831588641,world,-1.2303395241613175,-0.6068310745971812,0.47938949229012434,-0.0006750324002183453,-0.0011090026379343004,0.0002864998413557645,0.9999991161807339
1638480617.842332,23928,1638480617,841410539,world,-1.2303472496296413,-0.6068369288248087,0.47937002294047293,-0.0006869523404752767,-0.0009836085582580125,0.0004011603025087422,0.9999991998402288
1638480617.8524776,23929,1638480617,851418141,world,-1.2302946429083839,-0.6067902939007945,0.4793185507657439,-0.0008113628986667552,0.00020361637696351352,0.0002538700053819909,0.9999996178902462
1638480617.8623583,23930,1638480617,861790397,world,-1.23029407345637,-0.6068032757633952,0.47932719566855886,-0.0007798687025089284,0.000394746465757936,0.000209998826022911,0.9999995959401824
1638480617.871993,23931,1638480617,871516195,world,-1.2303929931536455,-0.6067655209953835,0.4791543984271967,-0.001980771830689888,-0.003917261482666844,0.001197797352073938,0.9999896483898894
1638480617.8822103,23932,1638480617,881478738,world,-1.230308287072118,-0.6067838999368734,0.4793953986998873,-0.000671984527208015,-0.0008422042604895716,0.0002371293531131189,0.9999993914490392
1638480617.8923397,23933,1638480617,891608617,world,-1.230320169972607,-0.6068117074681233,0.47938184022889835,-0.0006868127120702972,-0.0010928320562802816,0.0003678046636093919,0.999999099362657
1638480617.9029531,23934,1638480617,901489301,world,-1.2303097560194955,-0.6068152246036332,0.4793334864226154,-0.000831705165792244,0.0004174547006194829,0.0002072132459413498,0.9999995455302774
1638480617.912933,23935,1638480617,911568681,world,-1.2303150690285396,-0.606795721842667,0.4793583487934751,-0.0006275022470767184,-0.0008542786638572463,0.0003166671184187779,0.999999388085228
1638480617.9222898,23936,1638480617,921437685,world,-1.2303354643628386,-0.6068110916223894,0.47936806020927647,-0.000672935467903197,-0.0007912797912583597,0.00019964413114546766,0.999999440588028
1638480617.9325447,23937,1638480617,931518858,world,-1.2303282597039455,-0.6067977276284591,0.4793937164362783,-0.0007202204354563241,-0.0006805588354592906,0.00021682492387120332,0.999999485554442
1638480617.9422698,23938,1638480617,941598174,world,-1.2303073445176183,-0.6067765750021277,0.47938205924731203,-0.0006343221108039303,-0.0007936438083613755,0.00027605783736561924,0.9999994457783642
1638480617.9522457,23939,1638480617,951491371,world,-1.2303360754215584,-0.6068115928638967,0.4793778710743263,-0.0006832760934813945,-0.0010386191991720907,0.00017704308158087375,0.9999992115295324
1638480617.9625099,23940,1638480617,961647842,world,-1.2303238063986974,-0.6067852271774337,0.4793626504388143,-0.0006504426717706584,-0.0009778828553650785,0.0002534889915678955,0.9999992782061311
1638480617.9726665,23941,1638480617,971521774,world,-1.2303473556053692,-0.6068121304935512,0.4793765766402962,-0.0006331421708023533,-0.0009274602239708247,0.0002237894453886496,0.9999993444331896
1638480617.9825685,23942,1638480617,981555777,world,-1.230357238033971,-0.6068264694247517,0.4793860666035443,-0.0006543187077030286,-0.001146043388813785,0.00033860501095204755,0.9999990718986824
1638480617.9924088,23943,1638480617,991447214,world,-1.2303147370105982,-0.6067957159207295,0.4793564569934679,-0.0007860032419090096,0.0003409606003619096,0.00025433101766020425,0.9999996006301733
1638480618.0023782,23944,1638480618,1507233,world,-1.2303475164312407,-0.6068218739344571,0.47937367830656763,-0.0006989640470874165,-0.0009687717479405239,0.00031171456628333526,0.9999992378820048
1638480618.012206,23945,1638480618,11469009,world,-1.2303132961037597,-0.6067961042347492,0.4793648201689864,-0.000661928310664842,-0.0007526656148343698,0.00022867811980627662,0.999999471525711
1638480618.0225613,23946,1638480618,21560389,world,-1.2303174896213334,-0.6067823967701964,0.4793588154245481,-0.0006636835837487263,-0.000767475848633597,0.000267586947612198,0.9999994494509226
1638480618.0324495,23947,1638480618,31570935,world,-1.230317529168389,-0.6068194364613227,0.4794250002946949,-0.0004200708456164429,-0.002518662384100493,0.00021741118069375074,0.9999967163009378
1638480618.0424101,23948,1638480618,41559751,world,-1.2303586654483658,-0.6068264597988553,0.47939635126698277,-0.0006540362174626468,-0.001116145221811692,0.00038391137061966285,0.9999990895338503
1638480618.0523682,23949,1638480618,51475957,world,-1.2303323737636427,-0.6068076388073034,0.47938206067264366,-0.0006386473829629208,-0.0009423299561149995,0.00020517674365763252,0.9999993310229153
1638480618.0623078,23950,1638480618,61474630,world,-1.2303267787192185,-0.606789940393401,0.47937184705742386,-0.0006520087157397739,-0.0010156874482641865,0.0002643532071476488,0.9999992366902208
1638480618.0728047,23951,1638480618,71456438,world,-1.2303251118292347,-0.6068110630237936,0.4793558378357422,-0.000669584339189916,-0.0008249062317943485,0.0002178428097136667,0.9999994118653429
1638480618.0828693,23952,1638480618,81487464,world,-1.2302984576209652,-0.6068023906680098,0.47934984228495475,-0.000843220899577221,0.00024599084036039214,0.00023347077918982513,0.9999995869791228
1638480618.0930204,23953,1638480618,91571100,world,-1.2303426173542586,-0.6068102594879802,0.47939002890010646,-0.0006289849232376021,-0.000965280542841691,0.0002574385632722771,0.9999993031681703
1638480618.1032283,23954,1638480618,102463921,world,-1.230283926818436,-0.6067753718965527,0.479366325325808,-0.0008367986991835153,0.00031180417061803684,0.00031544911619974246,0.9999995515188751
1638480618.1133375,23955,1638480618,111720004,world,-1.23028476348767,-0.606816247220502,0.4793850094071247,-0.0006532871103290239,-0.0008886452456768506,0.00021184062232894356,0.999999369324366
1638480618.123518,23956,1638480618,121897308,world,-1.2303383878026668,-0.6068096768306774,0.4793709217139055,-0.0006358327875516426,-0.0009435005568960289,0.0002591513138902324,0.9999993191817492
1638480618.132592,23957,1638480618,131803210,world,-1.2303267656691061,-0.606814004694391,0.47937600271809977,-0.0006521717176150819,-0.0009699517287632332,0.00021301438354816779,0.9999992942450346
1638480618.142732,23958,1638480618,141567121,world,-1.2303208174504872,-0.6067812233509063,0.4793814100949616,-0.0006498764241686236,-0.0009570325798329182,0.000303967508920527,0.9999992846762582
1638480618.1531806,23959,1638480618,151598755,world,-1.230334621271471,-0.6068140208197526,0.4793783052905385,-0.0006505912216095871,-0.0009778589083394057,0.0003625428288581858,0.9999992445425722
1638480618.1625211,23960,1638480618,161436366,world,-1.2302863967000248,-0.6067729249062591,0.47935095804229555,-0.0008338929352886688,0.00014960907254754722,0.0002762236895284345,0.9999996029700068
1638480618.1725168,23961,1638480618,171436543,world,-1.2302991766441713,-0.6068045109524228,0.47934195741268787,-0.0008429530543697597,0.00022027963639486818,0.00040416115882263223,0.9999995387802876
1638480618.1827805,23962,1638480618,181788126,world,-1.230321122849263,-0.6067925828339418,0.4793733000261968,-0.0006439969872255211,-0.0008976576626783301,0.00026969372788039967,0.9999993533717381
1638480618.1927936,23963,1638480618,191480803,world,-1.23030510586498,-0.6067899277287017,0.47937889666436484,-0.0006362472362052971,-0.0009257212241121593,0.00025725100727630354,0.9999993360255741
1638480618.2025104,23964,1638480618,201647066,world,-1.2303218254141417,-0.6068093414729909,0.4793803143406692,-0.0006278308587167862,-0.0010319266905909515,0.00026321456643800545,0.9999992358366131
1638480618.21265,23965,1638480618,211530119,world,-1.2302951836060576,-0.6068053473178193,0.47935014830150857,-0.0008316771202022609,0.0004298241604092097,0.0002024771908524737,0.9999995412835679
1638480618.2230718,23966,1638480618,222063181,world,-1.2303340796828899,-0.606805343507679,0.4793885100296865,-0.0006255063205453544,-0.0010537290191531407,0.00024189769058906646,0.999999219940948
1638480618.2334857,23967,1638480618,232037021,world,-1.230292218097142,-0.606781294230715,0.47934681660589634,-0.0008009677594229642,0.0003983693606518134,0.00023004578343988573,0.9999995734156284
1638480618.243236,23968,1638480618,241756067,world,-1.2303178465137692,-0.6067877135388928,0.47938151832298503,-0.0006396190968704111,-0.0009014975252571959,0.000288728114674947,0.9999993474126364
1638480618.2530842,23969,1638480618,251869272,world,-1.2303097955155926,-0.6067945769452304,0.47937876552047093,-0.0006199418485002415,-0.0008986435746468374,0.000295157009181534,0.9999993604968807
1638480618.2622507,23970,1638480618,261539452,world,-1.2302850913179473,-0.60678499370809,0.47934598818356255,-0.0008106457695332645,0.0002654498389057497,0.0002414502271274722,0.9999996070457264
1638480618.2744358,23971,1638480618,271512588,world,-1.23029280460694,-0.6067980398491888,0.47933541332301044,-0.0007791278623302466,0.00016522057783081292,0.0002433997517220718,0.9999996532091877
1638480618.283382,23972,1638480618,281529117,world,-1.2303174370193724,-0.6067782546269488,0.4793726321844899,-0.0006636789986096528,-0.0009095718572729733,0.00026769261237189574,0.9999993302747202
1638480618.2933686,23973,1638480618,292112710,world,-1.2303336621045187,-0.6068031143630938,0.4793748768391368,-0.000667666435469831,-0.0008552242132976642,0.00019251556033361253,0.9999993928752332
1638480618.3026724,23974,1638480618,301969457,world,-1.230310235508008,-0.6067882219202783,0.47937728613438413,-0.0006422859438223119,-0.0008263758784846321,0.00026709491732705416,0.9999994166158194
1638480618.312595,23975,1638480618,311569746,world,-1.230325695074652,-0.6068176032210776,0.47937875507517064,-0.000688415251397417,-0.0007099480606390645,0.00023077345833548443,0.9999994844007691
1638480618.3224998,23976,1638480618,321532481,world,-1.2304280485604076,-0.6067935570952135,0.47916898674514163,-0.0018411898539076126,-0.004977476830928475,0.001226876223271997,0.9999851646494823
1638480618.3324828,23977,1638480618,331753307,world,-1.2303188107370966,-0.6068144579411162,0.4793683902728761,-0.0006404324296089058,-0.0011004898103740047,0.0003897808581975146,0.9999991134192885
1638480618.3429859,23978,1638480618,341518627,world,-1.230288223571521,-0.6067799424710203,0.4793387359348185,-0.0008104551765967399,0.0003466763454700288,0.0003096857226291579,0.9999995635362406
1638480618.3539546,23979,1638480618,351567542,world,-1.2303351776566844,-0.6068220359407052,0.47937745880823607,-0.0006581962899266583,-0.001006479391566138,0.0003929848490298314,0.9999991996695733
1638480618.3630407,23980,1638480618,361529957,world,-1.2303206144949421,-0.6067778131994501,0.4793808337893047,-0.0006425590362903687,-0.0007790526801154816,0.0002609932452428907,0.9999994560385185
1638480618.3729792,23981,1638480618,371404529,world,-1.2302930784924135,-0.6067774468163747,0.47933552135077034,-0.0008211910090794394,0.0002739448992590124,0.00031826608096424214,0.9999995746530198
1638480618.382262,23982,1638480618,381298078,world,-1.2302878174252576,-0.6067824101880981,0.4793402330585781,-0.0007819385093819802,6.8519237000977e-05,0.0002566521992809385,0.999999659003407
1638480618.3935323,23983,1638480618,391823140,world,-1.2303114899655205,-0.6067863351979297,0.47936544239357787,-0.0006611721512664971,-0.0008155335321920532,0.0002322213110697576,0.9999994219146864
1638480618.4031034,23984,1638480618,401678063,world,-1.2303110933999888,-0.606781012230018,0.47937067601981626,-0.0006462074964729092,-0.0009771449600089186,0.00023362919166781775,0.9999992865102452
1638480618.4121618,23985,1638480618,411338674,world,-1.2302913756344929,-0.6067719852927534,0.4793409762101346,-0.0008154098929509401,0.00019420315845085497,0.0002622054962976856,0.9999996143199843
1638480618.4237618,23986,1638480618,421515946,world,-1.2303178352262454,-0.6067797809606449,0.47937724738927484,-0.0006401751805968239,-0.0009669139614116056,0.00024362211558469745,0.9999992979504508
1638480618.4328783,23987,1638480618,431835176,world,-1.2303258607258343,-0.6067825126687861,0.47937467501300607,-0.0006210620268607827,-0.0009739188218409227,0.00023990805486748655,0.9999993041038641
1638480618.4424908,23988,1638480618,441398376,world,-1.2303292755116761,-0.6068059345262649,0.4793606729120269,-0.000687636167554267,-0.0011376901927989758,0.00039728595331954217,0.9999990374902358
1638480618.4526954,23989,1638480618,451387928,world,-1.2303300788326494,-0.606812040411735,0.47937088148807666,-0.0006559138397919936,-0.0009221617606215906,0.00023219205060182253,0.9999993327405642
1638480618.462405,23990,1638480618,461659988,world,-1.2303105226248188,-0.6067886705588172,0.47937399353646526,-0.0006084312400379576,-0.001091150618619898,0.00028378056425566885,0.9999991793348357
1638480618.47241,23991,1638480618,471503615,world,-1.2302916383534692,-0.6067740781697889,0.4793548026285185,-0.0007653343703675407,0.00012798386670889817,0.0002698316263125933,0.9999996625371055
1638480618.4822617,23992,1638480618,481699896,world,-1.2303217446260215,-0.6068084310743829,0.47938203776673244,-0.0006426989682088518,-0.0008067362261266558,0.00020689967812800205,0.9999994466534574
1638480618.4929197,23993,1638480618,491430366,world,-1.230319298015374,-0.6067765726333271,0.47937459617714323,-0.0006560183996930833,-0.000893031725417808,0.0002586818170172697,0.9999993526087477
1638480618.5027373,23994,1638480618,501435471,world,-1.2303156292451038,-0.6067798235989896,0.4793559116092532,-0.0006771794713482055,-0.0007711222156223528,0.0002561854418183834,0.9999994405835994
1638480618.5123684,23995,1638480618,511521891,world,-1.230308780750939,-0.606786688716262,0.4793664380469365,-0.0006373687141785646,-0.0008154976613017487,0.0002453786415641757,0.9999994342568445
1638480618.5226183,23996,1638480618,521552662,world,-1.230298928849033,-0.6068113632690204,0.4793452524889867,-0.0007880397367835458,0.00025880913366937535,0.0002221680745461546,0.9999996313262082
1638480618.5325997,23997,1638480618,531456131,world,-1.2302951322693934,-0.6067943829403503,0.4793536864314625,-0.0008129062662018673,0.0004916073716682286,0.0002296271473166371,0.9999995223883698
1638480618.5422633,23998,1638480618,541525110,world,-1.2303219335527773,-0.6068091740654846,0.47937468872458294,-0.0007028702180394068,-0.0008582588664602671,0.00021345988942714946,0.9999993618998217
1638480618.5527108,23999,1638480618,551544488,world,-1.2303373285416963,-0.606805444893383,0.47936406810526055,-0.000678308951845106,-0.00045286752554016024,0.00020264727127129717,0.9999996468709647
1638480618.5622256,24000,1638480618,561366162,world,-1.2302948996588956,-0.6067772656914174,0.4793288929353572,-0.0008176313499522054,0.00044623334930112474,0.0002547514233320514,0.9999995337281344
1638480618.572553,24001,1638480618,571538218,world,-1.2303407028919628,-0.6068331850476507,0.47937268520121096,-0.0007274535024853371,-0.0007955187364094166,0.00035619553551088446,0.9999993555428335
1638480618.5823853,24002,1638480618,581425910,world,-1.2303343010325416,-0.6068035603253931,0.47938935327065124,-0.0006282016883139182,-0.001098813644582143,0.0002512564212480744,0.9999991674203654
1638480618.5922897,24003,1638480618,591593870,world,-1.2302934362863849,-0.6068030042991139,0.4793518720569264,-0.0008164138329757673,9.238272147320077e-05,0.00021403504533146106,0.9999996395613779
1638480618.6022663,24004,1638480618,601491803,world,-1.2302850231003648,-0.6067829072509295,0.4793390754942408,-0.0008100120181730674,0.00029824304670564316,0.00031390170033741046,0.9999995781985802
1638480618.612345,24005,1638480618,611429097,world,-1.2302889368125645,-0.6067722524398502,0.4793340108239057,-0.0007915015586743427,0.00017471349091570122,0.00026873270536716484,0.9999996353915395
1638480618.6224098,24006,1638480618,621463868,world,-1.2303199054956027,-0.6067829613984612,0.4793661871507119,-0.0006100634291096449,-0.0010368008659512517,0.00025806512186063555,0.9999992431341984
1638480618.6323156,24007,1638480618,631484910,world,-1.2303429986790335,-0.6067986184331959,0.4793769769215521,-0.0006264218512179137,-0.000984609194667123,0.0002769415675613102,0.9999992807216245
1638480618.6425261,24008,1638480618,641440957,world,-1.230322517921742,-0.6067991231400944,0.4793887932441165,-0.0006641200115535235,-0.000836379933537151,0.0002491204432559313,0.9999993986759301
1638480618.652217,24009,1638480618,651450894,world,-1.2303000194095812,-0.6068229995275811,0.47934731873646785,-0.0008534297386402931,0.000304538183688926,0.0003065386375911687,0.9999995424740151
1638480618.6621728,24010,1638480618,661579268,world,-1.230297221549363,-0.6068086119632855,0.4793412810770766,-0.0008301274768360516,0.00046278997682442903,0.00023814451949170416,0.9999995200003836
1638480618.67269,24011,1638480618,671422863,world,-1.2302901388779321,-0.6067816267544744,0.47933268775976406,-0.0007900409284516978,9.442644877988782e-05,0.0002701839238111615,0.9999996469597501
1638480618.6820989,24012,1638480618,681458913,world,-1.230334321026645,-0.6068116687313069,0.479364655603791,-0.0006512034394714524,-0.0009698735538874229,0.00023023848912225592,0.9999992911345528
1638480618.6926367,24013,1638480618,691454034,world,-1.2303095738591183,-0.6067887586434337,0.4793722197552777,-0.0006596879532280703,-0.0007677906658695019,0.0003032109397676238,0.999999441686056
1638480618.7023056,24014,1638480618,701590249,world,-1.2303253389788045,-0.6067918321733087,0.4793790620878644,-0.0006491153382746786,-0.0010938626702814637,0.0003726868056888096,0.9999991216087547
1638480618.7120047,24015,1638480618,711387698,world,-1.2303274874447936,-0.6068038438319493,0.479387626881104,-0.0006336242068165009,-0.0009312848464698184,0.00021467392690344836,0.9999993425717862
1638480618.7222397,24016,1638480618,721446629,world,-1.2303308655063196,-0.6068116706714155,0.4793732377953895,-0.0006047589488624316,-0.0010760354370147626,0.00022794724771329366,0.999999212226892
1638480618.7326565,24017,1638480618,731510040,world,-1.2302885115101971,-0.6067892983320476,0.4793318177215105,-0.0007899367283233053,0.0003183126638507659,0.00022364415977250144,0.9999996123300764
1638480618.7425487,24018,1638480618,741327938,world,-1.2302861207339275,-0.6067799624404109,0.4793293255589331,-0.0008385691166254987,0.0003680163971428326,0.0002712213170466561,0.9999995439022786
1638480618.7522497,24019,1638480618,751506778,world,-1.2303367636616758,-0.6068045712918537,0.4793771779811396,-0.0006630371902404205,-0.0008151065197925034,0.00023779774307067185,0.9999994197174712
1638480618.7625222,24020,1638480618,761488554,world,-1.230328908272473,-0.6068066076916104,0.47938783291404735,-0.000649998089121169,-0.0009732833885699201,0.0002052480825039507,0.999999294047328
1638480618.7721908,24021,1638480618,771470523,world,-1.2303101398004022,-0.6067811638830733,0.47937205945834793,-0.0006672308196386007,-0.0008630889807581565,0.0002511415907088373,0.9999993734039767
1638480618.7823398,24022,1638480618,781503053,world,-1.230330596127295,-0.6068136699447614,0.4793679578886936,-0.0006475829694525357,-0.0008296086800917042,0.0002013002447273745,0.9999994259318088
1638480618.7924461,24023,1638480618,791523295,world,-1.2304318498603575,-0.6067898273561579,0.47915267776743414,-0.001859947307352352,-0.005019837104343195,0.0012088660921511557,0.9999849401237157
1638480618.8024986,24024,1638480618,801351497,world,-1.2303157128877988,-0.6067858144980312,0.4793732812087794,-0.0006207043360512822,-0.000900139259994851,0.0002805362783596818,0.9999993628872154
1638480618.8127813,24025,1638480618,811555906,world,-1.230281433353061,-0.6067732416767212,0.47935176782151395,-0.0008225503468513183,0.00043595139712253154,0.0002702943272521078,0.9999995301490311
1638480618.8225996,24026,1638480618,821455759,world,-1.2302860417876822,-0.6067674763415515,0.47936359223004427,-0.0008287793826880149,0.0003082931437663701,0.0002489561758786694,0.9999995780503586
1638480618.8326101,24027,1638480618,831558948,world,-1.2302797389973932,-0.6067710904375847,0.47934595490706383,-0.0008045377689503686,0.00045681690143918195,0.000275300266973297,0.9999995341234215
1638480618.8429585,24028,1638480618,841696571,world,-1.2303322383532327,-0.6068061517285842,0.4793536569925615,-0.0006343694512076027,-0.0007960441749400385,0.00020517029232482596,0.9999994608969659
1638480618.8523192,24029,1638480618,851466690,world,-1.2302925048907054,-0.6067843786140591,0.47932226134639544,-0.000837542616863344,0.000490164189623116,0.00028274875901190594,0.9999994891571553
1638480618.8621528,24030,1638480618,861450931,world,-1.2303291288838183,-0.6068006319791115,0.4793715808980724,-0.0006290274129018456,-0.0009046367472588113,0.00021535921865535108,0.9999993697884397
1638480618.872276,24031,1638480618,871553864,world,-1.2303295533955547,-0.6068015226755292,0.479401286834371,-0.000635883139174011,-0.001000950833321618,0.00020076359651824646,0.9999992767217589
1638480618.8826265,24032,1638480618,881470741,world,-1.2303101464705113,-0.6067773734251959,0.4793966703594226,-0.0006377995224452391,-0.000993370468110387,0.00030604010563556626,0.9999992563828916
1638480618.8923426,24033,1638480618,891395427,world,-1.2303015808221371,-0.6068023067138282,0.4793445825808069,-0.0008113889748610829,0.00032548013415557934,0.0002321268957542318,0.9999995909137755
1638480618.902657,24034,1638480618,901952555,world,-1.2303119915015244,-0.6068034853756042,0.47932321297648384,-0.0008351096317526802,0.0002979902633494194,0.0002185900183116661,0.9999995830059681
1638480618.912619,24035,1638480618,911498569,world,-1.2303141866436027,-0.6067871266326189,0.47934964887589065,-0.0006883571846084309,-0.0008714848853304904,0.000276127901538413,0.9999993452157171
1638480618.9230683,24036,1638480618,921576766,world,-1.2303241814947965,-0.6068084900881667,0.4793732456851026,-0.000678415815810223,-0.0007534863183158474,0.00022260289096684186,0.9999994612290058
1638480618.9324496,24037,1638480618,931821784,world,-1.2303086653052675,-0.6067804030808625,0.4793935803727484,-0.000616307074518725,-0.0012248128283923272,0.00027911382968406347,0.9999990210468187
1638480618.942216,24038,1638480618,941498268,world,-1.2303065508715583,-0.606793928797585,0.47936086861523547,-0.0008193571202145069,0.0002833652336971496,0.0002193834576449012,0.9999996001143963
1638480618.9522398,24039,1638480618,951437867,world,-1.2303128876303606,-0.6067869901981714,0.47937378468127856,-0.0006879196020700114,-0.0008774916794279456,0.00026075041285679223,0.9999993443918832
1638480618.962188,24040,1638480618,961445660,world,-1.2302904071288345,-0.6067826450062271,0.4793309078098388,-0.0008113995692009102,0.0002656831476447334,0.00027048709538293774,0.9999995989398873
1638480618.9724154,24041,1638480618,971804860,world,-1.2303297550987398,-0.6068177072210771,0.47935721838151957,-0.000663891447313943,-0.0008591223186745843,0.00022548357783587128,0.9999993851568829
1638480618.9825625,24042,1638480618,981464383,world,-1.2303212895432012,-0.6068176727838778,0.47937407238818563,-0.0006477041787246135,-0.000950238876619649,0.00024583725046535196,0.9999993085444714
1638480618.99272,24043,1638480618,991435567,world,-1.2302898697813476,-0.6067923586534657,0.47935449065933516,-0.0008581280413845027,0.0005106256615562611,0.00020009952364289426,0.999999481418805
1638480619.0026486,24044,1638480619,1589254,world,-1.230325687552549,-0.6068071010827033,0.47939199206372335,-0.0006846445681302108,-0.0008841045902043061,0.00022122552926661358,0.999999350339866
1638480619.0124412,24045,1638480619,11424400,world,-1.2303170985764103,-0.6068213053260797,0.4793355655135545,-0.0008669254773548688,0.0002223620666835648,0.0003354733795321943,0.9999995432263656
1638480619.0223982,24046,1638480619,21424641,world,-1.2303133968941105,-0.6067958943915939,0.47935784887817157,-0.000689742695841224,-0.0007794778806411382,0.0002411761367692213,0.9999994292514964
1638480619.0325136,24047,1638480619,31470228,world,-1.230306745790641,-0.6068087110503628,0.47933371933139535,-0.0008030421532761353,0.0003651838050652586,0.0002549601811242202,0.9999995783796086
1638480619.0424004,24048,1638480619,41520166,world,-1.2303091495509026,-0.6067914777663264,0.4793812728931269,-0.0006441029994614916,-0.000904198876446754,0.0002799243885075076,0.9999993445988127
1638480619.052544,24049,1638480619,51458389,world,-1.2303024371508695,-0.6067811532359652,0.4793851751751065,-0.0006712205959141951,-0.0009085533883145966,0.00030542546409659455,0.9999993153542347
1638480619.062131,24050,1638480619,61412900,world,-1.2303029648991275,-0.6067945397574447,0.47934894602290007,-0.0008168184688025287,0.00033183525583077594,0.00021617074217762455,0.9999995879814964
1638480619.0727267,24051,1638480619,71664863,world,-1.2302872123275392,-0.6067769107509109,0.4793346528284991,-0.0008323045803561832,0.0002876284169324659,0.00027957519813815747,0.9999995731882528
1638480619.0827756,24052,1638480619,81490537,world,-1.230330748583958,-0.6068154336041257,0.47936298270832667,-0.0006765973732748489,-0.0007309472997795748,0.00024519896459540335,0.9999994739046153
1638480619.0927525,24053,1638480619,91423319,world,-1.2304320511525708,-0.60678708853277,0.47915921840825887,-0.001837135048322546,-0.005059705156974587,0.0012503302832581177,0.9999847303797801
1638480619.1027055,24054,1638480619,101554221,world,-1.2302851671539008,-0.606784532799904,0.4793454793663644,-0.000831208153640858,0.0003474238629480222,0.00022917327478056852,0.9999995679345441
1638480619.11238,24055,1638480619,111336053,world,-1.2302976852124838,-0.6067949455026651,0.4793565024715838,-0.0008028564089085712,0.00037648359752141884,0.00022756356648677398,0.9999995809481675
1638480619.1226616,24056,1638480619,121564495,world,-1.2303009241471683,-0.6067874111347181,0.4793889097993024,-0.0006382297999605704,-0.0010285498359249043,0.0002941673674204641,0.9999992241064577
1638480619.1323266,24057,1638480619,131452091,world,-1.2303274912955315,-0.6068049114300924,0.47938296244280987,-0.000639067300479325,-0.0011106099303270956,0.00022949053904884403,0.9999991527359714
1638480619.142505,24058,1638480619,141674677,world,-1.2303103982661776,-0.6067888592318538,0.47936241505426425,-0.0006428350783577781,-0.0008509607636579008,0.00030353579518269645,0.9999993852472421
1638480619.1522923,24059,1638480619,151588674,world,-1.2302954251776315,-0.606811774464815,0.4793244557687684,-0.000800613612503447,0.00037505162720180026,0.00021853737711393644,0.9999995852976816
1638480619.162359,24060,1638480619,161418892,world,-1.2304359566410343,-0.6067743198846066,0.47916933678853585,-0.0018702729035164978,-0.004810504445349332,0.0012103792110049855,0.9999859479554768
1638480619.1727457,24061,1638480619,171509089,world,-1.230314038529465,-0.606821829713944,0.4793505995434468,-0.0008272688085067699,-5.318108219053141e-05,0.0003319875757347283,0.9999996012910908
1638480619.182268,24062,1638480619,181555827,world,-1.2303226590677265,-0.6068029421981231,0.4793835787413741,-0.0007210383299660226,-0.0007394617637018256,0.0001725203827410959,0.999999451768222
1638480619.1924312,24063,1638480619,191469249,world,-1.2303236077043453,-0.6068142272156124,0.47939376599725186,-0.0006128957587997233,-0.0011178119022421846,0.00023789485173747894,0.9999991591303362
1638480619.2030787,24064,1638480619,201676730,world,-1.2303006584608054,-0.6067889944004652,0.47936976991671054,-0.0006880969164369063,-0.0009145775892857327,0.00028979545102334625,0.999999303044289
1638480619.212159,24065,1638480619,211455362,world,-1.230303011718489,-0.60680768858667,0.47932206716554193,-0.0008230752775196068,0.0005370778182281054,0.00020758034564680975,0.9999994955023254
1638480619.2227194,24066,1638480619,221412593,world,-1.230346273949063,-0.6068109789406573,0.4793703838833372,-0.0006380774723524292,-0.0010334993744036802,0.00023156167454785372,0.9999992355573945
1638480619.2321498,24067,1638480619,231398049,world,-1.2303341455850803,-0.6068060940498984,0.47937668966728525,-0.0006950072083090417,-0.0007602691426525884,0.00023509593087484295,0.9999994418427016
1638480619.2426794,24068,1638480619,241394354,world,-1.2303322604575175,-0.6067999577228677,0.47938920434794347,-0.0006621823641597315,-0.0009813384313976305,0.0002393691518332298,0.9999992705956384
1638480619.2527804,24069,1638480619,251432004,world,-1.2303073518325804,-0.6067828141633691,0.4793855624742237,-0.0006541165533246554,-0.0008310264927558406,0.00024866163813042747,0.9999994098467724
1638480619.262358,24070,1638480619,261603676,world,-1.2303062543709051,-0.6067851727210013,0.4793782140021009,-0.0006787883607116374,-0.0007799468583683046,0.00029890008155610334,0.9999994207938326
1638480619.2724552,24071,1638480619,271415013,world,-1.2302858634135996,-0.6067792673608746,0.4793316130977526,-0.0008366015776604694,0.00043283419786304696,0.0002707729111090292,0.9999995197170787
1638480619.2820983,24072,1638480619,281413270,world,-1.2303345071488476,-0.6068065308063381,0.47936559672390544,-0.0006424033005919893,-0.0009647052689604206,0.0002142661885547908,0.9999993053756309
1638480619.2927964,24073,1638480619,291506763,world,-1.230320754078842,-0.6067874382037545,0.47936791274089724,-0.0006447008642708409,-0.001011940793934988,0.0002593258832159084,0.999999246543072
1638480619.3032036,24074,1638480619,302042545,world,-1.2303229863850447,-0.6067729775817062,0.4793763186335821,-0.0006559241573700601,-0.0007294002492881389,0.00026405329513173637,0.9999994840071837
1638480619.3126717,24075,1638480619,311478731,world,-1.2303353096702994,-0.6068239142945268,0.47938391909123634,-0.0006685416876573352,-0.0011894506297696374,0.0003189497770956488,0.9999990182646435
1638480619.3222783,24076,1638480619,321367959,world,-1.2303108691575078,-0.6067876850341171,0.4793829191742371,-0.0006232483205386711,-0.0009884889658283273,0.00027302742133697005,0.9999992799533021
1638480619.3328323,24077,1638480619,331402378,world,-1.230287190007033,-0.606801995273523,0.47933429096300945,-0.000860973509133301,0.0002427280348834893,0.0004134862267822526,0.999999514418311
1638480619.3427022,24078,1638480619,341627716,world,-1.2303218450767683,-0.6068017706442039,0.47936407136800996,-0.0006997516440726688,-0.0008884696197812956,0.0004310681190853871,0.9999992675745558
1638480619.352344,24079,1638480619,351403371,world,-1.2303109669095198,-0.6067791152429274,0.4793689469620063,-0.0006788272615001337,-0.0007844783196424868,0.00029085463714821906,0.9999994195952792
1638480619.3623698,24080,1638480619,361425085,world,-1.2303218391644815,-0.6067802195551184,0.47938386235178443,-0.0006247057569294391,-0.0008677415750620124,0.0002911800088321164,0.9999993859905508
1638480619.3724222,24081,1638480619,371618902,world,-1.2303199834446759,-0.6067813228678323,0.4793757333165438,-0.0006642440275720032,-0.0007514602244753766,0.00022215438035523262,0.9999994723672779
1638480619.3823984,24082,1638480619,381705706,world,-1.2303243466066582,-0.606812211175543,0.4793786103265356,-0.0006755797012951975,-0.000999476352947395,0.00019814032567400084,0.99999925268947
1638480619.3927438,24083,1638480619,391378574,world,-1.230329251119289,-0.6068130446154488,0.4793683287356683,-0.0006713111682370986,-0.0009008893299792793,0.00021711649134871258,0.9999993452998656
1638480619.4033802,24084,1638480619,401592999,world,-1.2303041575600986,-0.6067871577453245,0.4793742877388614,-0.0006586854004619683,-0.0009804572637114445,0.0002581096702648931,0.9999992691079805
1638480619.4121413,24085,1638480619,411681659,world,-1.2303052436296924,-0.6067856643058066,0.4793815939695242,-0.0006284200207020026,-0.0008596930924861911,0.00026014051216595983,0.9999993991713086
1638480619.422789,24086,1638480619,421671148,world,-1.2303148763278142,-0.606780829597144,0.4793770833520748,-0.0006579069696913771,-0.0008516301331111605,0.0003110717936040943,0.9999993725592407
1638480619.4325507,24087,1638480619,431908006,world,-1.2302976575471087,-0.6067994183104463,0.47934268657213075,-0.0008102551471305585,0.0002918162977703743,0.00022835976697251108,0.9999996030907521
1638480619.442217,24088,1638480619,441468901,world,-1.230282407342503,-0.6067833876680747,0.4793373089967919,-0.0007622566356735552,0.00017303599464224456,0.00025483011245698383,0.9999996620424327
1638480619.4524455,24089,1638480619,451465750,world,-1.2303389975847192,-0.6068265408288565,0.4793586342323624,-0.0007001304824700838,-0.0009756668599129901,0.0003634835249638198,0.9999992128852968
1638480619.4623334,24090,1638480619,461594444,world,-1.230306115416568,-0.6067813830233915,0.4793762862302983,-0.0006098956442209713,-0.0009104023747791344,0.0002785746986111985,0.999999360795274
1638480619.4726493,24091,1638480619,471555643,world,-1.2303088690135426,-0.6067775861048716,0.47938109876122725,-0.0006853937771529885,-0.0007281518260367738,0.0002759129871446534,0.9999994619510113
1638480619.4825337,24092,1638480619,481472553,world,-1.230305629343821,-0.6067921404752716,0.4793900663754834,-0.0006723577000921853,-0.000979851392871538,0.00022493531050840396,0.9999992686149712
1638480619.4923227,24093,1638480619,491598143,world,-1.230311516300867,-0.6067846311066832,0.47938049934259375,-0.00062594994957808,-0.0010913803605323603,0.0002623580976724131,0.9999991741215579
1638480619.502665,24094,1638480619,501414184,world,-1.2303082022538425,-0.6067857496099057,0.4793692547711581,-0.0006573803960852804,-0.0008237577278387679,0.00027259761768129307,0.9999994074822044
1638480619.5122237,24095,1638480619,511693892,world,-1.2303437013132321,-0.6068249330454972,0.4793558584336725,-0.0007074467871695683,-0.0009027298141273538,0.000327553977384073,0.999999288652906
1638480619.5225685,24096,1638480619,521459244,world,-1.2303395282425111,-0.606825569881528,0.4793596857715716,-0.0006889594007572248,-0.0010578777027739226,0.00031349945256278875,0.9999991539735438
1638480619.5322382,24097,1638480619,531453468,world,-1.2303318339318006,-0.6068077062765735,0.4793771060119626,-0.0006884583240131817,-0.0008693235297735764,0.00020311922477339974,0.9999993645219567
1638480619.5427303,24098,1638480619,541969154,world,-1.2303212359561075,-0.6068065393731955,0.47937621634012295,-0.0006256078125272626,-0.0009185207216448558,0.0002436485885195841,0.9999993527847478
1638480619.5528436,24099,1638480619,551408668,world,-1.2302953477900784,-0.6067961858654883,0.47934628917908734,-0.000810983068805825,0.0004096626863888026,0.00022657890826127756,0.9999995615723758
1638480619.562973,24100,1638480619,562331922,world,-1.230291913097116,-0.606771145697945,0.4793562429348609,-0.000800065567124969,0.0001858320368611954,0.0002790073243717174,0.9999996237581569
1638480619.573103,24101,1638480619,571968180,world,-1.2303088361642878,-0.6067927313926249,0.4793741327069801,-0.0006706025725630029,-0.0009416631093280727,0.0002619946147510913,0.9999992974605533
1638480619.5823882,24102,1638480619,581618647,world,-1.2303193275655686,-0.6068037952931915,0.4793633905227652,-0.0006964164769393342,-0.0007511648634606611,0.0004269252135171406,0.9999993842449607
1638480619.5924249,24103,1638480619,591561734,world,-1.2303175899098016,-0.6067901086131401,0.4793656266557806,-0.0006494291700395533,-0.0008711020849016209,0.0002671403306781478,0.9999993740292815
1638480619.6023517,24104,1638480619,601613176,world,-1.230297897502507,-0.6068059059124408,0.4793409404157011,-0.0007995320689516646,0.00037901826057917885,0.0002494743217978099,0.9999995774280067
1638480619.6126635,24105,1638480619,611502085,world,-1.2302803894065044,-0.6067762160222804,0.4793535214751641,-0.0008036261991836398,0.00016553996170242297,0.0002888380266032598,0.9999996216769523
1638480619.622777,24106,1638480619,621489589,world,-1.230291444779695,-0.6067739568555597,0.4793670163035573,-0.0008324737802588269,0.0002457776450042457,0.00026755037728015815,0.9999995874986899
