Time,header.seq,header.stamp.secs,header.stamp.nsecs,header.frame_id,pose.position.x,pose.position.y,pose.position.z,pose.orientation.x,pose.orientation.y,pose.orientation.z,pose.orientation.w
1638480616.7431803,23148,1638480616,741718743,world,-3.4961917557963,0.20800313026794118,0.4761138605697898,0.006746036833653506,-0.0020733464387148264,0.002815531775004542,0.9999711320845259
1638480616.752877,23149,1638480616,751602468,world,-3.496387611643488,0.20811897068692933,0.4761025236062532,0.006710746735768606,-0.0018961384969150214,0.002105530016409688,0.9999734682882337
1638480616.7626235,23150,1638480616,761479504,world,-3.4962079407310376,0.20804914218049186,0.4760983858997966,0.006231266170901495,-0.001762207456068532,0.0026413355615936916,0.9999755443475807
1638480616.7729156,23151,1638480616,771541252,world,-3.4964332238645714,0.20819832664253224,0.47627172320792854,0.0010204429816165247,-0.0010916518138070698,0.0017749571130324126,0.99999730825622
1638480616.782689,23152,1638480616,781599320,world,-3.496342970133389,0.20819340737687858,0.4762151286011907,0.004515505075654654,-0.0008012218365734261,0.0008633804131752612,0.99998911135659
1638480616.7929926,23153,1638480616,791550567,world,-3.4961940078214564,0.20797288181862503,0.47604683640315043,0.00500447758982979,-0.0014515955975539531,0.0023050658552773314,0.9999837672410872
1638480616.8026628,23154,1638480616,801590938,world,-3.496399035314386,0.20822761306125356,0.4761668664535397,0.00797589365599488,-0.001582839301436872,0.0014429772534567795,0.9999658981969237
1638480616.8130257,23155,1638480616,811650574,world,-3.4962773549755575,0.20804207833701885,0.4761426761347549,0.005210862015619143,-0.0019327246386120172,0.0025537636134779786,0.9999812947170224
1638480616.823294,23156,1638480616,821550459,world,-3.496365554678393,0.2081790740539727,0.47610860665892446,0.007259431061177695,-0.0009110941276484091,0.0005922414175849002,0.999973059546237
1638480616.8327353,23157,1638480616,831528843,world,-3.4961911995409087,0.20807874122490022,0.4761453982307921,0.00742345266192074,-0.0013469879853868507,0.001974819901194658,0.999969588567723
1638480616.8426542,23158,1638480616,841781255,world,-3.4964852410801823,0.2082511493734072,0.47623113931788225,0.006642417100822807,-0.0012453545156687624,0.0008623681052709941,0.9999767915849047
1638480616.852604,23159,1638480616,851935934,world,-3.4963643324311855,0.20811158727051432,0.4761474689716056,0.0030647611725008466,-0.0011719059454200938,0.0016538173315284288,0.9999932493590369
1638480616.8632746,23160,1638480616,861764617,world,-3.4963681070130814,0.20812431871087805,0.4761202184582171,0.007626034001169855,-0.0021171261972686376,0.0018417424816854879,0.999966984138331
1638480616.87327,23161,1638480616,871662870,world,-3.496319549890887,0.2081938474057302,0.47619191361102514,0.005688932803600718,-0.0012544385282635163,0.0014525228379838355,0.9999819761400405
1638480616.8826358,23162,1638480616,881739338,world,-3.4963061785759066,0.20809402805012772,0.4761113705284205,0.006148232500473746,-0.0018746240766160378,0.002543456564292819,0.9999761076397761
1638480616.8933167,23163,1638480616,891870817,world,-3.496458890347336,0.20820425844161633,0.47613024327943676,0.006569919756450118,-0.0018435547822980328,0.0016710574784828734,0.9999753222090344
1638480616.9033277,23164,1638480616,902152317,world,-3.4963514143177066,0.20822109408180475,0.47624922564787003,0.00577522761237582,-0.0010602433275123458,0.0013852868604265006,0.999981801639623
1638480616.9128795,23165,1638480616,912015113,world,-3.4963928177535757,0.2079482909414175,0.47619560142447126,0.005376695857288461,-0.0018869086369291226,0.003697016996773645,0.9999769311253035
1638480616.9230928,23166,1638480616,922065245,world,-3.496522286370588,0.2079546844859169,0.4761147131701956,0.005588862637531943,-0.002210617176699078,0.003948610188427301,0.9999741427975509
1638480616.9335108,23167,1638480616,931520216,world,-3.4964017206457774,0.208181193918992,0.47629093051282173,0.0015510338981518429,-0.0013757496870207382,0.0018554259851940199,0.9999961294930391
1638480616.94344,23168,1638480616,941566635,world,-3.496400077325977,0.20812138727916732,0.4760950851097535,0.007765135334406635,-0.001970004986334553,0.002008564886112757,0.9999658931287059
1638480616.9551167,23169,1638480616,951575453,world,-3.496438451964584,0.20815302550287815,0.47617344925575184,0.003801139509862508,-0.0015724756628977233,0.0018943666131406465,0.9999897449643428
1638480616.9633353,23170,1638480616,961791767,world,-3.4962143336462725,0.20798306052536253,0.4760428855566525,0.005125242507211198,-0.0011869030724041474,0.0022164469379172694,0.9999837051238939
1638480616.9732246,23171,1638480616,971946446,world,-3.4965260453732703,0.20797151365618738,0.47608480221441335,0.0059217317913363545,-0.0022301338370771073,0.003999703179627493,0.999971980592524
1638480616.983683,23172,1638480616,981677973,world,-3.4963889691594687,0.2078928743948026,0.47609019705031375,0.002276911821812956,-0.0012966940003004573,0.003864883684523446,0.9999890984062428
1638480616.9939547,23173,1638480616,991874382,world,-3.4969518728685776,0.2080687408722021,0.47622473118912667,0.004046357644843796,-0.0016357047308509886,0.0022053000895536517,0.9999880439842062
1638480617.0036123,23174,1638480617,1760507,world,-3.4963631400583886,0.20817132547495557,0.4761145097833386,0.007950058631031523,-0.0009293521533437979,0.0007502462728350855,0.9999676844792879
1638480617.0133212,23175,1638480617,11748556,world,-3.496445945877496,0.208159398233862,0.47619085614853146,0.004624767419258198,-0.0017768385903928867,0.0016646878791910591,0.9999863414993259
1638480617.023882,23176,1638480617,21729308,world,-3.496785958257758,0.20812682597431714,0.47619865275487233,0.0029334790164554673,-0.00019031298444738176,-0.00018440309178542502,0.9999956622292557
1638480617.0339992,23177,1638480617,31728557,world,-3.4964386574667365,0.20792231846112225,0.47612265446850954,0.004686596231483573,-0.0021523252223447052,0.0042246106960678,0.9999777777412693
1638480617.0443275,23178,1638480617,41697277,world,-3.4967172735884318,0.20795106053669135,0.4761581100100359,0.0035029449677046244,-0.001938963356934774,0.0034007524024701583,0.9999862022451864
1638480617.0538814,23179,1638480617,52557809,world,-3.496319876516884,0.20809933824442983,0.4761551123915572,0.005651165342386597,-0.001806402674632387,0.002214276167741003,0.9999799489093284
1638480617.0637414,23180,1638480617,62035021,world,-3.4963932858539537,0.20816106981195073,0.4761281009961114,0.007346781017265374,-0.0019044928152616224,0.002009820814142011,0.9999691786930716
1638480617.0732543,23181,1638480617,71576107,world,-3.4963721152304275,0.20814525053202262,0.47619629422325743,0.0035958803754636438,-0.0015485954115664312,0.0021321306589915778,0.99999006270834
1638480617.0839674,23182,1638480617,81639551,world,-3.4964738631077337,0.20792825521432887,0.47610556137764315,0.004127514475359598,-0.0019395603350056089,0.00426850187407967,0.9999804906205491
1638480617.093591,23183,1638480617,92068577,world,-3.4963318838544537,0.2082193709322315,0.47619014051196323,0.005946110951600597,-0.0011068030494203406,0.0014712809253049305,0.9999806268543406
1638480617.1033175,23184,1638480617,101651010,world,-3.4964121262796044,0.20813352059548546,0.476096372370876,0.007596413619810705,-0.0018140265685488341,0.00196835601917139,0.9999675641651119
1638480617.113026,23185,1638480617,111590000,world,-3.496439084091695,0.20828241470692085,0.47622591768071554,0.007104518049689427,-0.001295131152408001,0.0009123549420568278,0.9999735076825983
1638480617.1241617,23186,1638480617,121770249,world,-3.496463439828706,0.20815551290598538,0.47616192107376876,0.0038401749233246975,-0.0010194176175216392,0.0010873556847986292,0.9999915157149557
1638480617.1335692,23187,1638480617,132079590,world,-3.496439471800045,0.20825002504812304,0.47621277639015763,0.007817069456585727,-0.0014636191318572948,0.0011465434086187964,0.9999677178201104
1638480617.1436484,23188,1638480617,141530881,world,-3.4964204565317196,0.20825456325108524,0.4762140271223204,0.0071477817635176655,-0.0013331454132715173,0.0009870763772215163,0.9999730784473119
1638480617.1542282,23189,1638480617,151529875,world,-3.4963738242129447,0.20817252618273724,0.4761122765358953,0.007088215411618579,-0.000876743889798511,0.00069874178338949,0.999974249809639
1638480617.1630635,23190,1638480617,161595974,world,-3.496271622067374,0.2081400554277903,0.47619996994131325,0.0053868461634560645,-0.0010797124699197524,0.0015627664990901585,0.9999836868020713
1638480617.1725566,23191,1638480617,171807104,world,-3.496422360556737,0.2079187744767531,0.47613818990692097,0.004611235151323095,-0.0021002969934140114,0.004398193555885711,0.9999774903248392
1638480617.1823823,23192,1638480617,181398305,world,-3.4964595150550895,0.20792527465350127,0.4762283269112145,0.001235351061441282,-0.0018222859511791841,0.004459893328624368,0.9999876311900885
1638480617.192976,23193,1638480617,191549816,world,-3.496525315231289,0.20798329722924846,0.47610342372768527,0.006279635894885771,-0.0024301612661386646,0.003971910425689289,0.9999694417415058
1638480617.2025554,23194,1638480617,201467974,world,-3.4964041251870825,0.20814596495690255,0.4762037712071575,0.004271304038622064,-0.0016608600914001267,0.0018342779901493458,0.9999878163906905
1638480617.2123437,23195,1638480617,211440310,world,-3.4970480381792446,0.20811772032273554,0.4762190155494481,0.0033582219804132894,-0.0012731973642394498,0.00016723842281095395,0.9999935366515685
1638480617.2225912,23196,1638480617,221467528,world,-3.496470434678334,0.2080135926430525,0.4761311150730667,0.006218189247472884,-0.0020203833199935683,0.0036609636374998478,0.9999719243653633
1638480617.2326925,23197,1638480617,231386646,world,-3.4965554122026816,0.2079908715829147,0.47611597055195365,0.005515100551201983,-0.0021834599074804758,0.004050275947318605,0.9999742053840655
1638480617.2426002,23198,1638480617,241621712,world,-3.4964128835197337,0.20788474960088044,0.47608411480102475,0.003201858530803064,-0.001472783515653329,0.003989002347743289,0.99998583333512
1638480617.2530808,23199,1638480617,251549759,world,-3.4964912011192837,0.20798790207711312,0.4762651331099814,0.0003467022110614535,-0.0017266184662818502,0.004043670502547017,0.9999902736102565
1638480617.2628636,23200,1638480617,262295118,world,-3.4965022758902404,0.20796944738189294,0.476177947299096,0.0032304843341245636,-0.002222865982506385,0.004295301014269788,0.9999830864704601
1638480617.2729037,23201,1638480617,271629636,world,-3.496386948381229,0.20812935790364107,0.47611629951744083,0.007558851167001199,-0.0020242537043306144,0.001945115023657259,0.9999674908183367
1638480617.2824953,23202,1638480617,281830365,world,-3.496380499024202,0.20817669017906926,0.476278983041619,0.0007472095200864491,-0.0002742422289884185,0.0008053907117609646,0.9999993589072617
1638480617.2926457,23203,1638480617,291488833,world,-3.4962852817348784,0.20808515145256948,0.47614649408603266,0.005998725792495122,-0.0017988775413068363,0.0021815456252548973,0.9999780098517881
1638480617.3038397,23204,1638480617,301444016,world,-3.496764619441978,0.20787209395671766,0.47617018070906086,0.0011411201435064067,-0.0016394898137049026,0.0036300916917518847,0.999991416139298
1638480617.31296,23205,1638480617,311748077,world,-3.4970327292620147,0.20801372629997456,0.47628220154060996,-0.0010118806351659844,-0.0014459280060969075,0.0024995973660694153,0.9999953186904371
1638480617.322952,23206,1638480617,322293908,world,-3.4963438820820705,0.20812679483450391,0.47619343037221884,0.004672843061282412,-0.0017658049809538229,0.0023718546288943564,0.9999847102711688
1638480617.3329914,23207,1638480617,331997561,world,-3.496510233678035,0.20825741183345245,0.476284595379569,0.0015258669590705127,-0.001212363587219625,0.0014316229794090057,0.9999970761758259
1638480617.342523,23208,1638480617,341494838,world,-3.4964539059106525,0.20818164996147687,0.47613290472134845,0.006082634059520275,-0.0015630839597803624,0.0017133538478712482,0.9999788111505287
1638480617.3524976,23209,1638480617,351622157,world,-3.4963399130522217,0.2080628401355249,0.4761389710612032,0.003859211569173877,-0.0011232010106917536,0.0016752293144251926,0.9999905192112065
1638480617.3631766,23210,1638480617,362278136,world,-3.4965105584872513,0.20799099376772898,0.4761613561688792,0.0032692854410860538,-0.001951869226650516,0.0038494619177272824,0.9999853417036527
1638480617.3730786,23211,1638480617,371503146,world,-3.4963807661561117,0.20816405556890577,0.47611056353020675,0.007082260042374861,-0.0017297290709197392,0.001877464385910554,0.999971661977235
1638480617.383505,23212,1638480617,381451417,world,-3.4972399198432296,0.2082549563420531,0.47638231675090237,0.0017947008669012391,-0.0008367077310381586,-0.0008698995015908633,0.999997661119179
1638480617.3936698,23213,1638480617,391588176,world,-3.4963302825430462,0.20810119558760817,0.4761208485322445,0.006281996288990139,-0.0018671491764475346,0.001985321437477154,0.9999765541128292
1638480617.4030707,23214,1638480617,401625506,world,-3.496434865554233,0.20819556161847505,0.47617879758653964,0.005912938686619696,-0.0016207580629487273,0.0015945604221348903,0.9999799336368956
1638480617.4127562,23215,1638480617,411652373,world,-3.496363514724243,0.20812956990048956,0.4761797607137848,0.0033532074256726776,-0.001657325395680598,0.002246859307832711,0.9999904804025607
1638480617.4231305,23216,1638480617,421644069,world,-3.496537786528578,0.20800559038427358,0.4762231663614881,0.0009554932581960343,-0.0019509433293661929,0.004053854310377864,0.9999894235030635
1638480617.433635,23217,1638480617,431899969,world,-3.4963937018480276,0.2082418321791908,0.4761657737333857,0.008172238633556109,-0.0014752467635883457,0.0012259320769533975,0.999964767005941
1638480617.4435863,23218,1638480617,441720843,world,-3.496260976389128,0.20800957286372077,0.4760935424873374,0.005346512924501203,-0.0012236087382465715,0.002014244204702806,0.9999829300550523
1638480617.452788,23219,1638480617,451555861,world,-3.496336665863956,0.20817482505375676,0.4762212787193534,0.004931207629150799,-0.0011343406583342764,0.001447512372202496,0.9999861504893564
1638480617.4632897,23220,1638480617,461494084,world,-3.4962424411136204,0.20801492092822926,0.476123136243032,0.006118182914838762,-0.0021025224334985278,0.002625586859976918,0.9999756264684044
1638480617.4733384,23221,1638480617,472288469,world,-3.496355120245493,0.20809664775904912,0.476056940507132,0.005568574692673126,-0.001246683705484201,0.0013779867297272403,0.9999827688056446
1638480617.482794,23222,1638480617,481740752,world,-3.4965802950473837,0.20797696717260022,0.4760883796805908,0.00316884371183574,-0.0013715909664570253,0.003343645416566493,0.9999884485348215
1638480617.4943419,23223,1638480617,491584091,world,-3.496259827966364,0.2080316853942299,0.47611932020324044,0.00616186719219898,-0.00205472536457262,0.00267413507407158,0.9999753289446635
1638480617.503413,23224,1638480617,501491496,world,-3.4963474256537235,0.2082460104944786,0.47622697338320324,0.005717366646991395,-0.0010901585584430194,0.0012444746662425362,0.9999822871210003
1638480617.5129488,23225,1638480617,511652064,world,-3.4965128746010294,0.20798359563148455,0.47609489373778163,0.0065065692110244265,-0.002303851507631779,0.004079708413642674,0.9999678558856744
1638480617.5224073,23226,1638480617,521562861,world,-3.4964325093649697,0.20819800367960542,0.4761718454181049,0.0057302491726850145,-0.001461712550596932,0.0016979504356935081,0.9999810721234459
1638480617.5328119,23227,1638480617,531599264,world,-3.4964354247271676,0.2082721395770302,0.4761957367114884,0.007705146443875268,-0.0014079223166961062,0.0009507172691109568,0.9999688718203696
1638480617.5426004,23228,1638480617,541455083,world,-3.496445121816256,0.20820538774214947,0.47614553509326846,0.005685377520737203,-0.0019153145443835562,0.0016706278021987732,0.9999806083396764
1638480617.5529273,23229,1638480617,551714983,world,-3.4965091584301664,0.20818213063247398,0.47620599019750903,0.0006884963966792454,-0.0006609592161833816,0.0010668678819263549,0.9999989754487496
1638480617.563559,23230,1638480617,561476494,world,-3.4964265953941043,0.20813885793819656,0.47616011419771476,0.0067197915454258106,-0.001790267314675928,0.0017856102936056229,0.9999742251380321
1638480617.57307,23231,1638480617,571832590,world,-3.496389789845687,0.20790816640697898,0.4760955938815306,0.005777149228320049,-0.002278825775798979,0.004599047420291847,0.9999701396855324
1638480617.5827088,23232,1638480617,581964644,world,-3.4964254726561492,0.20823049862106047,0.47622042532764514,0.005982493808330883,-0.0012290492107905882,0.0010720926636643665,0.9999807747267903
1638480617.5934439,23233,1638480617,591467009,world,-3.496235310205087,0.20806871153090942,0.4761366980742042,0.0051655625448165324,-0.0020178751534693498,0.002692593306973664,0.999980997361822
1638480617.6030483,23234,1638480617,601798560,world,-3.4963653422511416,0.20813734801140005,0.47608960849717946,0.00731633060833544,-0.001898379204974719,0.0019178226728400218,0.9999695942472547
1638480617.6131535,23235,1638480617,611525894,world,-3.4963598483199183,0.20825062652973247,0.47614052068000934,0.008682734184400588,-0.0014529002339797026,0.0010686688140391593,0.9999606778043622
1638480617.6233277,23236,1638480617,621720703,world,-3.496401031397303,0.20808157561518342,0.47607702899065135,0.005586507025583431,-0.0014208492452788702,0.0015422849226732847,0.9999821965834657
1638480617.6328173,23237,1638480617,631797459,world,-3.49659328543437,0.20807670130170527,0.47616168884157595,0.006046678016010275,-0.0018126778824275158,0.003124375329679344,0.9999751947736827
1638480617.6426141,23238,1638480617,641606845,world,-3.49644426745072,0.2082123848518014,0.4761846737443785,0.006070386268280793,-0.0018648380276303515,0.0016604384501584474,0.9999784576348824
1638480617.652409,23239,1638480617,651582669,world,-3.4965582708616916,0.20805580672921173,0.4762087904321121,0.004887932861285044,-0.0018537086211060263,0.0031227584989008727,0.999981459956158
1638480617.6627023,23240,1638480617,661469913,world,-3.4961458333767226,0.20826212541851688,0.4760300616462913,0.006495651661544239,-0.0013805969172912805,0.003034040821756678,0.9999733471737815
1638480617.6727633,23241,1638480617,671606224,world,-3.4963128745596177,0.20807746145695308,0.47612336217882206,0.005523506768847574,-0.0018452919340411745,0.0024494271126956784,0.999980042839592
1638480617.6838262,23242,1638480617,681705349,world,-3.4964311613350803,0.20821109150994233,0.4762037812910216,0.0042643775752296345,-0.0016916638789188604,0.0018471564317324885,0.9999877706103877
1638480617.6932144,23243,1638480617,692140296,world,-3.496573035517197,0.20802119916121115,0.47615888356661645,0.004727327323433774,-0.0020844706564062793,0.003807857807314711,0.9999794035765831
1638480617.7026227,23244,1638480617,701614180,world,-3.496206388742584,0.20811740395118086,0.47616443424270133,0.008055436388605727,-0.0015211571100735644,0.0018476317525351125,0.9999646905178916
1638480617.712877,23245,1638480617,711502960,world,-3.496288474775804,0.20818105528842204,0.47621867100691345,0.005636276186185707,-0.001289545888903157,0.0014993734669593874,0.9999821605115565
1638480617.723017,23246,1638480617,721805006,world,-3.49646051414112,0.20819536766761823,0.4761392145511677,0.006369267183093096,-0.0016694509969743306,0.0018117874556623887,0.9999766811256824
1638480617.73282,23247,1638480617,731847168,world,-3.4965261032019286,0.20808522513057692,0.4761312152799439,0.006227882647344785,-0.0015693976078211787,0.001684671322296708,0.9999779559327372
1638480617.7434602,23248,1638480617,741508036,world,-3.496269346586136,0.2081869257244697,0.4763124308138569,0.00201690669032978,-0.0009160309935734762,0.0016085389104618395,0.9999962527815768
1638480617.7533648,23249,1638480617,751593176,world,-3.4965723970914357,0.2080079119162346,0.4762111210462542,0.003122899119390221,-0.0023237324085757737,0.0038690282705121436,0.9999849390810971
1638480617.762459,23250,1638480617,761651948,world,-3.496587264127353,0.2080284676163952,0.47613337280482115,0.004449269101178035,-0.002149721407830834,0.0036941501623001818,0.999980967797344
1638480617.7727768,23251,1638480617,771473462,world,-3.4965566467727607,0.20797632678153163,0.4761590674206093,0.003479838483183862,-0.002048156111975613,0.003950526076181338,0.9999840444349066
1638480617.7826867,23252,1638480617,781472519,world,-3.496268122233292,0.2080690147795255,0.4761328776661921,0.00580925335610114,-0.0018541839617542979,0.002413884109564923,0.9999784936391314
1638480617.7925777,23253,1638480617,791443831,world,-3.4963956571232977,0.20788109859889106,0.4761180563094341,0.003771985684560189,-0.0020865043129825104,0.004594333161166513,0.9999801551663671
1638480617.8029158,23254,1638480617,801539436,world,-3.4963766705004375,0.20816364031223114,0.47610557246421625,0.0067853723535978025,-0.002040514309866061,0.0019404550349512476,0.9999730144647062
1638480617.812813,23255,1638480617,811504860,world,-3.4966365908440578,0.20807333662253227,0.47623899315516754,0.001082099461898465,-0.0019256528324742208,0.0037111270301239093,0.9999906741855594
1638480617.823703,23256,1638480617,821843802,world,-3.495848851188423,0.20852503691329002,0.47629808136164486,0.008993902134700771,-0.0027664765732748047,0.004582020765050997,0.999945229208815
1638480617.832544,23257,1638480617,831764040,world,-3.4964329401292393,0.208166228548195,0.4761993288494795,0.004547385967490134,-0.0016103234166509738,0.0017406571500150842,0.9999868490395476
1638480617.842741,23258,1638480617,841467373,world,-3.496397569265966,0.20821700029146217,0.4761690892039675,0.008496707057093223,-0.001583850526491651,0.0012671095090599422,0.9999618451821988
1638480617.8531492,23259,1638480617,851475103,world,-3.496518183089666,0.20823347856634264,0.4762811838866378,0.0013418862738173954,-0.0012217827679846399,0.0015018635818421396,0.9999972254930899
1638480617.8636398,23260,1638480617,861844959,world,-3.4964424701269863,0.20826114486661018,0.47620184923415165,0.006745894604692672,-0.00119527517072262,0.001012636369992692,0.9999760191078738
1638480617.872517,23261,1638480617,871558629,world,-3.4965137387213865,0.2079873594050449,0.4760860408983498,0.005673436844496804,-0.0023433026273345843,0.004051169183200476,0.9999729541719704
1638480617.8828769,23262,1638480617,881518068,world,-3.4965248030257,0.20801880257461972,0.47609233051151423,0.00583241478940436,-0.0014046413791439076,0.0027450624661755165,0.9999782370393754
1638480617.8931134,23263,1638480617,891802193,world,-3.4965081639829365,0.20824916142544958,0.47629089855055473,0.0023207357901680594,-0.0013024952356090903,0.0015571709539039776,0.9999952464437889
1638480617.9034052,23264,1638480617,901527735,world,-3.4964308227355296,0.20819807456054865,0.47618506888147905,0.005261050981193809,-0.0016882493906677245,0.001806727430303488,0.9999831033035312
1638480617.9133132,23265,1638480617,911615211,world,-3.496433960136644,0.20825929497791168,0.47621826395077044,0.006725215855223142,-0.0013229412308161678,0.0009824255371917486,0.9999760277817987
1638480617.9225779,23266,1638480617,921476311,world,-3.4964385362527146,0.2083094684417891,0.4763321885949831,0.0025371811303121134,-0.0007865769345927038,0.0011664980823687394,0.9999957916365759
1638480617.93301,23267,1638480617,931556043,world,-3.496611775701309,0.20794814692497235,0.47611334652709053,0.003318222048629874,-0.0016881022319046438,0.003142540999011307,0.9999881320042556
1638480617.9427416,23268,1638480617,941640992,world,-3.4963800524257342,0.2081575747377107,0.4761192148515436,0.006961259897527904,-0.0019499256820420371,0.0019812769768641583,0.9999719062013765
1638480617.9524243,23269,1638480617,951688563,world,-3.496925816641222,0.20799669485307398,0.47609342510590535,0.0035503962958598483,-0.0007133324987619388,0.0018630869006480279,0.9999917073406607
1638480617.9631922,23270,1638480617,961695332,world,-3.496226946972756,0.2080341413277077,0.4761520566788125,0.0043021649801524425,-0.0017830657810829894,0.00276394129931856,0.9999853362331859
1638480617.9727366,23271,1638480617,971571504,world,-3.4965223907197402,0.20791800996606508,0.4760329866820824,0.0055968902264837755,-0.0016899940532099443,0.0033996070178130694,0.9999771304445005
1638480617.9830842,23272,1638480617,981736072,world,-3.496526127749508,0.20806484781337933,0.4761624707822136,0.007029757063139244,-0.001877788522079766,0.0032529819163825357,0.9999682367628242
1638480617.9927926,23273,1638480617,991486959,world,-3.496448724440969,0.20819584970096444,0.47616897248453555,0.00569723028447501,-0.0016184592227698556,0.0015736536565986645,0.9999812227092063
1638480618.0032945,23274,1638480618,1551203,world,-3.4963890496385437,0.208134835961057,0.47611389205551763,0.00760494600357789,-0.0019399439271548776,0.001760715538720494,0.9999676501240597
1638480618.012442,23275,1638480618,11534035,world,-3.4965867543876645,0.2080001525487893,0.4761833782501991,0.002417238947748562,-0.001993316092141751,0.003871594347722002,0.9999875971251009
1638480618.0229862,23276,1638480618,21778222,world,-3.49541166481953,0.20844891356561862,0.47623002972801537,0.006819026474587113,-0.0028465051274842315,0.005925241695952766,0.9999551438926362
1638480618.0329692,23277,1638480618,31686299,world,-3.4963994064640223,0.20789568323903299,0.47609717194152334,0.005154543436092377,-0.0023089441875518996,0.004510988327474549,0.999973874880246
1638480618.0430074,23278,1638480618,41758927,world,-3.4962997907815097,0.20818820793078935,0.47618330083266885,0.007693264296985772,-0.0014205577117941566,0.001556526848995294,0.9999681859561398
1638480618.052731,23279,1638480618,51518294,world,-3.496354210918045,0.20823627796076233,0.4762401635496316,0.005443170790910247,-0.001364814252985339,0.001524446312355746,0.9999830924756863
1638480618.0629797,23280,1638480618,61516071,world,-3.496436050045998,0.20811547116549717,0.47602525496547926,0.005085116546613236,-0.0006887284627876148,0.001592695231502619,0.9999855651781737
1638480618.07294,23281,1638480618,71502744,world,-3.496308817286405,0.20810118726675392,0.47612299352519166,0.0061870226671190175,-0.0019049565272960382,0.0021694476506242517,0.9999766924223968
1638480618.0833378,23282,1638480618,81527338,world,-3.4963901750753346,0.20810490804187118,0.4760736913664959,0.006017656498890737,-0.001303096828828953,0.0014235651752141465,0.9999800314061816
1638480618.0934196,23283,1638480618,91612510,world,-3.496434435884896,0.20815843384753577,0.4761250164210514,0.004914521771450065,-0.0013148533435064869,0.0011508339444536715,0.9999863970163171
1638480618.1035724,23284,1638480618,102546421,world,-3.4963746604782853,0.2082344386511444,0.4762396833968514,0.00520017339933976,-0.001002981992092928,0.001086731854699731,0.9999853855120165
1638480618.1139507,23285,1638480618,111767014,world,-3.4963216934841443,0.20820416164920513,0.47618545726708433,0.006436074644117902,-0.0012649578790724172,0.001403270871921296,0.9999775035747553
1638480618.1240604,23286,1638480618,121973248,world,-3.4964507460911665,0.2081968702730412,0.47615897778257105,0.006393872350161649,-0.001692533361968841,0.0016568437817256448,0.9999767540277481
1638480618.1326602,23287,1638480618,131861228,world,-3.4965627827556984,0.20798082291916226,0.47615825431213493,0.0035752978854693275,-0.0021747350841415025,0.0038552821591324974,0.9999838121548857
1638480618.1430526,23288,1638480618,141617907,world,-3.496515548051576,0.2082689652804396,0.47630162397449566,0.0011754082287246867,-0.0011925165686079626,0.001570383312541453,0.9999973651045194
1638480618.1534965,23289,1638480618,151652678,world,-3.4965379634493576,0.2079768634883805,0.4760736916574174,0.006009716359331179,-0.002299085107004423,0.003954125973368688,0.9999714807956964
1638480618.16359,23290,1638480618,161876640,world,-3.496297645952963,0.2081658928004577,0.476185833763361,0.007814684799280304,-0.0015716643543298647,0.0016038314946013692,0.9999669436022284
1638480618.1730306,23291,1638480618,171816462,world,-3.496353006472148,0.2081560113823827,0.47620282046167806,0.003951565839296884,-0.0006174045761175349,0.0009722961756339632,0.9999915292537004
1638480618.183261,23292,1638480618,181983302,world,-3.4965904825881164,0.20801272991348457,0.47612024850979895,0.0052178593733941256,-0.002335312341850781,0.0038900811357479716,0.9999760934785306
1638480618.1933699,23293,1638480618,191517668,world,-3.4963836427746156,0.20813243681439614,0.476096767662354,0.006880559781470481,-0.0018817117400545176,0.0019190167168953766,0.9999727168442455
1638480618.2035308,23294,1638480618,201694684,world,-3.4963800374250087,0.2081770372003508,0.4761422130723824,0.007008638726662117,-0.0020253258425803685,0.0019252441696341732,0.999971534831526
1638480618.2131617,23295,1638480618,211568072,world,-3.4963780075134934,0.20809810879603996,0.47606654361408873,0.005371406383271022,-0.0013009017597538587,0.0014599001025305098,0.9999836620364194
1638480618.2241886,23296,1638480618,222496062,world,-3.4963207823124653,0.20817137522261506,0.47618494371528347,0.005257386789105217,-0.0008935485265737061,0.000884416000328055,0.9999853895250264
1638480618.2340097,23297,1638480618,232139041,world,-3.4965372492116287,0.20796043070170392,0.4760814748634733,0.006162941188135503,-0.0023767174647750357,0.0037847197334468967,0.9999710222134158
1638480618.2437072,23298,1638480618,241815045,world,-3.4965203509203464,0.20796613088451524,0.4760882913657012,0.006275077841094093,-0.0023209714288283485,0.0039275775649185475,0.9999699048592344
1638480618.2534683,23299,1638480618,251960028,world,-3.4965764170498805,0.2080276809477673,0.47613197932734663,0.004897358067912667,-0.0021696153539358374,0.003740461393596951,0.9999786585731387
1638480618.2625918,23300,1638480618,261581373,world,-3.4966359749233717,0.20799036999323517,0.476166741353422,0.0002978135311545553,-0.0013106384607920294,0.003118343072657478,0.9999942347185843
1638480618.2745721,23301,1638480618,271561870,world,-3.496388797009916,0.2081512510177851,0.47610493165321754,0.007886676254945905,-0.0019757539576255117,0.0018935671758997241,0.9999651549615611
1638480618.2844355,23302,1638480618,281951374,world,-3.496241817216785,0.2081409629407003,0.47620626959096274,0.005787035808178777,-0.001263061593568551,0.0016542737022085207,0.9999810889564282
1638480618.2936323,23303,1638480618,292744031,world,-3.496461298444926,0.20796570607465356,0.4761486779344691,0.00468788762158058,-0.0021880363964570226,0.004297301058992969,0.9999773844492602
1638480618.3035376,23304,1638480618,302149272,world,-3.4965910638028848,0.20798654140660672,0.4761074481506146,0.0028454224771032694,-0.001562733503112976,0.0033421880068356547,0.9999891455482166
1638480618.3130617,23305,1638480618,311650229,world,-3.4965354330524834,0.20796509818345238,0.4760951573939204,0.0060398070623039184,-0.0022921823495616047,0.003890782234462481,0.999971563817857
1638480618.324156,23306,1638480618,321595748,world,-3.4963696978885883,0.20803966473885532,0.4760555562980694,0.006415953150188961,-0.0013859485700018343,0.001421405915258261,0.9999774468941589
1638480618.3332698,23307,1638480618,331808701,world,-3.4965456871595126,0.20797558658723098,0.47607013766844203,0.003241452837863065,-0.001396540986806088,0.0033560612302797332,0.999988139684562
1638480618.3434987,23308,1638480618,341559972,world,-3.496442730000742,0.20819988019350916,0.4761680122846516,0.005907368241670352,-0.0017388613825521334,0.0016946683815625815,0.9999796035223051
1638480618.3538318,23309,1638480618,351617592,world,-3.4963548039667303,0.20821151047934064,0.4762117896444356,0.005845207745247726,-0.001269229998700224,0.0016311443071786603,0.9999807808002484
1638480618.363718,23310,1638480618,361571303,world,-3.496460930304979,0.20820767890154737,0.47615890764553814,0.0063536490697496855,-0.0009994259870696003,0.0005221697049527852,0.9999791795982524
1638480618.3733668,23311,1638480618,371445043,world,-3.4963816097291165,0.20811444391300438,0.476073402085676,0.0063338909452925985,-0.0011945050609692687,0.0015487086993958704,0.9999780280008742
1638480618.3826823,23312,1638480618,381351520,world,-3.4963862052918193,0.20814638456787934,0.4761086795737202,0.007676163415974315,-0.0020093349627450913,0.00191412165977845,0.9999666870583691
1638480618.3938353,23313,1638480618,391874342,world,-3.496385004877669,0.20819344817491203,0.4761858558081349,0.007640320653980534,-0.0013914274390343106,0.0012009915291386795,0.9999691230479737
1638480618.4037879,23314,1638480618,401762962,world,-3.4971412357982943,0.20810123033320405,0.4761315967202001,0.00439076213788516,-0.0008043930669453304,-0.0006209224317429204,0.9999898442559185
1638480618.4127007,23315,1638480618,411786628,world,-3.4963933284637827,0.20815691226976255,0.4761219666255075,0.007448210429531305,-0.002166824388562165,0.0019827316438225475,0.9999679483906948
1638480618.4241843,23316,1638480618,421560524,world,-3.496657328760441,0.20807833542709347,0.47624609989435535,0.0006546232317159559,-0.0016052049521376576,0.0035939450977312526,0.9999920391403727
1638480618.4332893,23317,1638480618,431888170,world,-3.496461346649537,0.20795018165254384,0.4761080932140293,0.004201590464712664,-0.0019513307267566046,0.004220321620195756,0.9999803637229002
1638480618.4432812,23318,1638480618,441443721,world,-3.496392253773625,0.20812814513241884,0.476118658354608,0.007291226152251552,-0.001962082088242284,0.0019200013033160057,0.9999696504644884
1638480618.4530935,23319,1638480618,451426298,world,-3.4965179494908822,0.20797651268969544,0.47608334465358737,0.006357351962124906,-0.0023450930088732952,0.0041495586052056116,0.9999684323908387
1638480618.4631004,23320,1638480618,461898526,world,-3.4964138970786864,0.20821509492712276,0.47615013121388894,0.005148848182477212,-0.0005734012922597026,0.0005791066037381608,0.9999864125121367
1638480618.472687,23321,1638480618,471547361,world,-3.496378402028397,0.20797191038216498,0.4761980472294998,0.004531871505517458,-0.0015779398418447968,0.003743516654950153,0.9999814789932697
1638480618.4827597,23322,1638480618,481812956,world,-3.4954108928176333,0.2084377994573658,0.47622622510129087,0.007290193866465352,-0.0031026921092043745,0.0061230594174518,0.9999498660025089
1638480618.493158,23323,1638480618,491469087,world,-3.4964488162408167,0.2079312377957351,0.47611225528503065,0.004509196670783588,-0.002194515611944495,0.004248260700951624,0.9999784015305682
1638480618.5034556,23324,1638480618,501470640,world,-3.4964330208349583,0.20820193172115448,0.4761361758901134,0.005627604291838693,-0.001661127019647114,0.001632317804312856,0.9999814529607762
1638480618.5125787,23325,1638480618,511761229,world,-3.4965145301732297,0.20798262839289924,0.4760838320566715,0.00617543782471929,-0.002265041230728026,0.003963727221868227,0.9999705107763964
1638480618.523007,23326,1638480618,521697339,world,-3.4962857486022965,0.20807854705837334,0.4761382821301895,0.005921494187668629,-0.001707260939301111,0.002308205649835008,0.999978346442236
1638480618.5328963,23327,1638480618,531496292,world,-3.496578281855529,0.20784718887127482,0.47612437161126536,0.0050821542719221915,-0.0023391174253212417,0.0039417911505969724,0.9999765809858511
1638480618.5426476,23328,1638480618,541764832,world,-3.4962872181292997,0.20808752209778453,0.4761590179322821,0.004018007258767642,-0.001554231868734905,0.002325706434324401,0.9999880154634596
1638480618.55319,23329,1638480618,551585546,world,-3.4965270779522752,0.20808343270866242,0.47618038146634223,0.004029995872001413,-0.0016120534863516322,0.0034511054931787265,0.9999846250256571
1638480618.5626328,23330,1638480618,561402227,world,-3.4964185897763103,0.20820437049705814,0.47628061877658845,0.0017380020503936305,-0.0013292846894203223,0.00195704685786136,0.9999956911500588
1638480618.572813,23331,1638480618,571601644,world,-3.4964086337623685,0.20815078680803198,0.476285929233806,0.0011125078817852514,-0.001216829876381465,0.0019236629641681206,0.9999967905808825
1638480618.5829055,23332,1638480618,581461432,world,-3.4965128430213874,0.20804963486186606,0.47612946069651646,0.007731479594695789,-0.0021354718205470525,0.0032893162139769018,0.9999624214850402
1638480618.592958,23333,1638480618,591846936,world,-3.496368082857599,0.20822469863579712,0.47617517144965094,0.007687425758446391,-0.0015205855526620015,0.0013154688566298827,0.9999684299249016
1638480618.6030083,23334,1638480618,601538717,world,-3.4963719609956248,0.20822068138621913,0.4761580150570685,0.0076233521713283525,-0.0013972911249597489,0.0011339159751994564,0.999969322686324
1638480618.6125329,23335,1638480618,611629105,world,-3.496446658664255,0.2082304454952006,0.47618859625242427,0.00451387264000454,-0.0015348403740244685,0.001559866559611407,0.9999874179384122
1638480618.6229517,23336,1638480618,621508862,world,-3.4963974855760265,0.20815146307878113,0.4761201993770529,0.007332975761382471,-0.0018092022837454588,0.0020505558697969744,0.9999693742681346
1638480618.6326358,23337,1638480618,631524559,world,-3.4964487414550964,0.20803762464690795,0.4761846726969224,0.005708579068321628,-0.0018366227640664334,0.0036455360702693207,0.9999753742010868
1638480618.6427586,23338,1638480618,641489183,world,-3.496568572398804,0.20801881156847846,0.4761361013184561,0.005350910935794965,-0.002293839526522408,0.003777877803746902,0.9999759165558357
1638480618.6525168,23339,1638480618,651494096,world,-3.4963765624097736,0.2078892373315971,0.47611797013544677,0.004992781926079865,-0.00223390516167678,0.004572918037996879,0.9999745847855259
1638480618.6627438,23340,1638480618,661717354,world,-3.4965176686702013,0.20796405110722568,0.47614706565707254,0.005221402766293085,-0.0019250209906530094,0.00416588486048161,0.9999758380334332
1638480618.6734881,23341,1638480618,671458576,world,-3.4962719590034514,0.20801417831853658,0.4761356816713458,0.0024988503661166656,-0.0011655477498263578,0.001961870088664054,0.9999942741391302
1638480618.682324,23342,1638480618,681510724,world,-3.4963239515510534,0.20812392606634852,0.4761420201921473,0.0048191950753974705,-0.0016361465348783944,0.0022383227097923903,0.9999845440279509
1638480618.692897,23343,1638480618,691539446,world,-3.4962145558376982,0.2081106001594282,0.47617000317620595,0.007131801899587878,-0.001543782991608712,0.001956393359719933,0.9999714629231986
1638480618.7027237,23344,1638480618,701631530,world,-3.496388200542199,0.20817851823307815,0.4762126447918702,0.004396051084400974,-0.0018332248056493476,0.002068184891608988,0.9999865182255856
1638480618.712527,23345,1638480618,712132335,world,-3.4963335563970217,0.20785339908153552,0.4760924032993445,0.00530906328127647,-0.0022306620251817478,0.004793757666430262,0.9999719285467171
1638480618.72304,23346,1638480618,721524200,world,-3.4962868091105683,0.20808444342970406,0.4761126114389184,0.005308703484810286,-0.0016173288653879927,0.002291019792011021,0.9999819764090572
1638480618.7331054,23347,1638480618,731552666,world,-3.4964212717810925,0.20787986419606896,0.4760298588368554,0.004252603474959785,-0.001731687253653092,0.003993191884635694,0.9999814853493603
1638480618.743131,23348,1638480618,741489961,world,-3.4962176146656567,0.20804911362320222,0.4761130963140425,0.006806806908377044,-0.0019022323868886758,0.0025571890773415373,0.9999717544389347
1638480618.7525437,23349,1638480618,751596862,world,-3.496388627683355,0.20789589788917354,0.476111468329305,0.005799911491968657,-0.002379750267142524,0.004515253668439732,0.9999701547044598
1638480618.76315,23350,1638480618,761534476,world,-3.496326462869569,0.20810324870333788,0.47611866901106914,0.004334001001404486,-0.0010269128120453765,0.0015706979403830547,0.9999888473344972
1638480618.772736,23351,1638480618,771509500,world,-3.4965975104224167,0.20800986487529166,0.47617191357363603,0.003924298936854128,-0.002329203922033695,0.003971855443180405,0.9999816993581844
1638480618.782728,23352,1638480618,781571152,world,-3.496461522317338,0.2082028998399021,0.4761770562679587,0.005282497746571893,-0.001681875590589176,0.001609348327662735,0.9999833381161988
1638480618.7929149,23353,1638480618,791655812,world,-3.4963909954548336,0.20814541229169384,0.47609267284656576,0.00735780723207682,-0.0017185287042493162,0.0018425734724816752,0.9999697566700839
1638480618.8035085,23354,1638480618,801534960,world,-3.4963754961781466,0.2081553025231442,0.47622111540665496,0.004013658470687168,-0.0015960981761443823,0.0018213745319928083,0.9999890127451938
1638480618.8130648,23355,1638480618,811604932,world,-3.4965544912254045,0.2081053039337414,0.4761568491639919,0.006175722601446002,-0.0016191611858920893,0.002897483989929238,0.9999754213749119
1638480618.8231823,23356,1638480618,821908481,world,-3.496231107842279,0.20804257376164254,0.47614406526015685,0.005830784114224139,-0.0021193306421448095,0.0025052431920971805,0.9999776168248924
1638480618.833182,23357,1638480618,831766988,world,-3.496510511994585,0.20793092042492065,0.47605749299727185,0.005042632742854895,-0.0017903269662586522,0.003433338621100296,0.9999797891809051
1638480618.8435214,23358,1638480618,841766557,world,-3.496357054592799,0.20809153782188924,0.47605872767208657,0.006075236340761695,-0.0011337820216321525,0.0014039089596146867,0.9999799173390256
1638480618.8527124,23359,1638480618,851505412,world,-3.496373262057011,0.2082185760673363,0.47616406674893924,0.008923909297212599,-0.0015263338194732065,0.0011089015626207714,0.9999584013774029
1638480618.8624208,23360,1638480618,861486868,world,-3.496383815908281,0.20822475351890954,0.47617341108585776,0.008546438350421784,-0.0016316172409533694,0.0010312800378419384,0.9999616156024117
1638480618.8728397,23361,1638480618,871690125,world,-3.4964321265436378,0.20794240342841333,0.47613178008268653,0.0045663831658297425,-0.002074443315281124,0.004312124453684521,0.9999781249669467
1638480618.8830476,23362,1638480618,881534328,world,-3.496257842563115,0.20807106901630307,0.4761245137667305,0.00618835106855704,-0.0019176323590215873,0.002547752646616569,0.9999757676832172
1638480618.8925905,23363,1638480618,891435429,world,-3.4963714973510496,0.20815675222229618,0.4761482375017953,0.007107869662772808,-0.0018157766233692972,0.0018661179563478898,0.9999713489635011
1638480618.903031,23364,1638480618,902003949,world,-3.4962438613543734,0.20798039723611333,0.4760761257279111,0.005523706361165077,-0.0014065016568623112,0.0021172693574273978,0.9999815136249235
1638480618.9130213,23365,1638480618,911539115,world,-3.496317272058096,0.20809401472483072,0.47613786302241073,0.006573865567428997,-0.0019254398617774013,0.0023891800725635544,0.9999736840494459
1638480618.92365,23366,1638480618,921887722,world,-3.4965181451815797,0.20799520930923202,0.47611714716250825,0.005084677736130778,-0.002196609398969166,0.003954664700358998,0.9999768405251073
1638480618.9329822,23367,1638480618,931927517,world,-3.496239091015569,0.20808968691767168,0.4761544816504318,0.0047609761543584,-0.0008321537022883637,0.0012339245066607966,0.999987558950903
1638480618.9424555,23368,1638480618,941671043,world,-3.4963539792191227,0.20815075452620727,0.4762325890342939,0.0037674924479987907,-0.0016480810246631509,0.002159169895866151,0.9999892138493052
1638480618.9525893,23369,1638480618,951689909,world,-3.496578124874468,0.2079985122422129,0.47610014146403423,0.003401361463879675,-0.0015950479150067419,0.0032199756610160253,0.9999877590846217
1638480618.9625328,23370,1638480618,961483582,world,-3.4962796895528743,0.2080646213744379,0.47610926340136495,0.006327371661965559,-0.0017845357742952632,0.002332585306690644,0.9999756691268586
1638480618.9724746,23371,1638480618,971851069,world,-3.4963895948567174,0.20814423734542783,0.47610075408579833,0.007700529571641235,-0.00200181943213349,0.0018860923001040228,0.9999665680507088
1638480618.982957,23372,1638480618,981512897,world,-3.4964592612005156,0.20794365209332122,0.4761688741195534,0.003294086214636158,-0.0020536838861625727,0.0041565258028202524,0.9999838272050987
1638480618.9932532,23373,1638480618,991529874,world,-3.496458768829765,0.20822019114833226,0.47620801925624084,0.0052466933997928795,-0.0006960063608979264,0.0004960542085963716,0.9999858707570505
1638480619.003128,23374,1638480619,2072921,world,-3.496303053310539,0.20807440683453926,0.47610377108279256,0.00472298099520151,-0.0012095751690985113,0.0015365276692082548,0.9999869346452239
1638480619.0130255,23375,1638480619,11460978,world,-3.4962169365543305,0.20801265862049959,0.4760897176125163,0.00583013109879733,-0.001806816443562113,0.0027914291304471693,0.9999774762008992
1638480619.0226831,23376,1638480619,21461378,world,-3.49634778375134,0.2080997150488142,0.47611164840710685,0.0035966631160189006,-0.000955402904746172,0.0016271979428240364,0.99999175168927
1638480619.0329578,23377,1638480619,31507445,world,-3.4963534948851067,0.20812583504597604,0.4761431506845903,0.006495692621739673,-0.0018157849001437234,0.0020521529200273323,0.9999751484766775
1638480619.0430667,23378,1638480619,41710926,world,-3.4967072381478337,0.20814641928763478,0.4761944649229094,0.0031778247228615277,-0.00038050073230093184,-0.00015524335380626126,0.9999948662611848
1638480619.05306,23379,1638480619,51565625,world,-3.4962857297992715,0.2080920624321972,0.47612820448316734,0.006056100740599485,-0.0018483889740957258,0.002374425633255846,0.999977134341047
1638480619.0626664,23380,1638480619,61449893,world,-3.496408376029042,0.20817275524299214,0.47613232229303537,0.0065289537156539975,-0.001977428808541762,0.0021133052357170706,0.9999744979146553
1638480619.0735033,23381,1638480619,71849990,world,-3.4963946830869,0.2080946730497668,0.4760429174316853,0.005829133324533581,-0.001237685457546083,0.0013551170585335986,0.9999813263242222
1638480619.0832357,23382,1638480619,81658415,world,-3.4962809738753267,0.20805207421148497,0.47612129554525995,0.0057631377723415,-0.0017095757597763064,0.002300356028859584,0.9999792857633998
1638480619.0931232,23383,1638480619,91468601,world,-3.496414647838359,0.20823684066736967,0.4761743878226341,0.008145124233909099,-0.0015772022748839867,0.001349088866320686,0.9999646740477532
1638480619.103241,23384,1638480619,101608655,world,-3.4964641650539403,0.2079015731654337,0.4760895039254432,0.0038819752911103908,-0.0015277332665963065,0.003720199800915122,0.9999843780841512
1638480619.1129413,23385,1638480619,111530269,world,-3.49639071607948,0.20790008212470817,0.4761399600926269,0.004152226452869901,-0.0021321738718292466,0.0045523887904086666,0.9999787440772756
1638480619.123649,23386,1638480619,121612753,world,-3.4963814677596075,0.20814894008904075,0.4761058649775565,0.0077061462531248905,-0.0019211330272009392,0.002075021178381588,0.9999663088549168
1638480619.132511,23387,1638480619,131491709,world,-3.496437223008405,0.2082670228496986,0.4762223193524838,0.007368245591864974,-0.0015572084147279803,0.0012759116026906478,0.9999708276287032
1638480619.143181,23388,1638480619,141852508,world,-3.4963820062710598,0.20793011658462626,0.47607951778359925,0.003912935023194054,-0.0008695007319538895,0.0032033259221842993,0.9999868357188597
1638480619.1524875,23389,1638480619,151625540,world,-3.4964612105823596,0.2081928223744431,0.4761381492046864,0.005846763775495798,-0.0017182026142375587,0.001763854167834176,0.99997987577331
1638480619.162569,23390,1638480619,161506512,world,-3.496292122689226,0.20814883305465823,0.4762075436136903,0.002107829720994274,-0.00021280661736525252,0.0009618184377470028,0.9999972933325888
1638480619.1730762,23391,1638480619,172080760,world,-3.4965176532177926,0.2079225254173335,0.4760539808518762,0.005545049167341058,-0.0018299900661608041,0.0034785038839244293,0.9999769015216396
1638480619.1826487,23392,1638480619,181599317,world,-3.496466111397302,0.2082154866425012,0.47620494906957556,0.004226167485015908,-0.0015135215092794902,0.0015935809107291965,0.9999886545660959
1638480619.1928573,23393,1638480619,191511907,world,-3.49649933436958,0.2083328679532799,0.4763623312660492,0.002256264063970334,-0.0009705542704409234,0.0007424009252320796,0.9999967080634555
1638480619.2034004,23394,1638480619,202020072,world,-3.4962309112605796,0.20812707436342437,0.47617726149759365,0.007929529322226361,-0.0016680966492822406,0.001865211476146396,0.9999654299046773
1638480619.212392,23395,1638480619,211506596,world,-3.496364081063686,0.20814555034421423,0.4761514103383638,0.004634692704967304,-0.001683106993204135,0.002005201338778942,0.9999858328706317
1638480619.223059,23396,1638480619,221463763,world,-3.496294853938852,0.20809856944200097,0.47622830859753634,0.002572672328400297,-0.0014088116314923298,0.0025893963994451626,0.9999923457872886
1638480619.2326305,23397,1638480619,231447171,world,-3.496393482799467,0.20791903821439117,0.4760952271924536,0.005671546110633669,-0.00237810634400669,0.004381804479436649,0.9999714885757671
1638480619.2432616,23398,1638480619,241429075,world,-3.496365455058702,0.20810080685217008,0.47612447423811755,0.004426012348056504,-0.0011739135239868276,0.0015324994694400345,0.9999883418255981
1638480619.253333,23399,1638480619,251528104,world,-3.496268232461946,0.2080913300281017,0.4762527654012881,0.002162047205720081,-0.0015656489265598215,0.0025209266381453115,0.9999932595893855
1638480619.2630365,23400,1638480619,261652638,world,-3.4963812037241526,0.20815442180877025,0.4761414442686709,0.007251393290601663,-0.002014709779138826,0.0019759684600546856,0.9999697264360037
1638480619.2734168,23401,1638480619,271452263,world,-3.496401440276794,0.20807705520861536,0.4760636660092612,0.0050893181691495405,-0.0011529330577723018,0.001344626437991324,0.9999854806774345
1638480619.2824013,23402,1638480619,281450903,world,-3.4962179963465885,0.20814407966300655,0.47614643432089065,0.0078073042129766,-0.0015408240830936746,0.0018980269168251125,0.9999665341179644
1638480619.2930317,23403,1638480619,291550284,world,-3.4964767020200216,0.20820086058485995,0.4761652880134205,0.00621961671542897,-0.00189863315167692,0.0017534033609448566,0.9999773183111317
1638480619.3038914,23404,1638480619,302095347,world,-3.496520025883304,0.2082010570126544,0.4762010890437185,0.0054986624368075256,-0.0017552291516727693,0.001673402426793063,0.9999819416401224
1638480619.313277,23405,1638480619,311620049,world,-3.4964069685018937,0.2079692596756985,0.4761808796672419,0.0045482652901233595,-0.0017455111869420878,0.0037931613010638186,0.999980939018785
1638480619.3230824,23406,1638480619,321528286,world,-3.4963404309189454,0.2082218296699676,0.4762219816052626,0.005981256455172213,-0.001075996724922555,0.0013389268496155672,0.9999806368511128
1638480619.333472,23407,1638480619,331581233,world,-3.4963785943166186,0.20814164370201205,0.4761145193869413,0.0077790996240545765,-0.0019606964936495254,0.0019880090166044836,0.999965843965907
1638480619.3437521,23408,1638480619,341680422,world,-3.496245612693104,0.20809368633588776,0.4761462121335688,0.005385296942077888,-0.0007635156775608261,0.0012998869629329462,0.9999843628350092
1638480619.3525994,23409,1638480619,351444301,world,-3.4963777974388686,0.20817427855972684,0.47616600867292824,0.004359221180547348,-0.0015835571536340503,0.0018623587346268723,0.9999875105006981
1638480619.3625512,23410,1638480619,361462847,world,-3.4965071857756724,0.2079245119762426,0.47604883007469145,0.005532549453762765,-0.0017062449083923984,0.0034842434196716973,0.9999771695757093
1638480619.3728647,23411,1638480619,371780860,world,-3.4962576812999413,0.20805592782713364,0.47612216408085783,0.00632083200437535,-0.0019875997621016266,0.002574533358503112,0.9999747338347825
1638480619.383021,23412,1638480619,381803694,world,-3.4965775287438783,0.20812158416993953,0.4761893793390613,0.005896427079205399,-0.0017657331133386013,0.002955664227511043,0.9999766889199201
1638480619.3931532,23413,1638480619,391416367,world,-3.496321992700446,0.20807872916555836,0.4761586831471538,0.004633322491275118,-0.001683444701744419,0.0023615727297152745,0.9999850605438416
1638480619.404091,23414,1638480619,401824176,world,-3.4964562601842784,0.20819586698632034,0.47617166976895997,0.005612788360271205,-0.0007978737889269063,0.00041800702408404023,0.9999838425066515
1638480619.4124749,23415,1638480619,411748734,world,-3.496364241188162,0.2082235616132249,0.4761747110627642,0.008070622817893761,-0.0014750848604407631,0.0014036279769413216,0.9999653589002412
1638480619.4230943,23416,1638480619,421718126,world,-3.496414626934542,0.2081750784002728,0.47619441562265175,0.004210222392945111,-0.0016079020425173879,0.0019341002488857367,0.9999879738950118
1638480619.4330957,23417,1638480619,432090189,world,-3.496337220432147,0.20812284792097055,0.4761576043671661,0.0057984594462624686,-0.00183131170495335,0.002161819044090645,0.9999791751351177
1638480619.4426787,23418,1638480619,441590026,world,-3.4962814325552216,0.20800833476978092,0.4761165975972932,0.006047776652619645,-0.001958866322314057,0.0025103422744186675,0.9999766424381905
1638480619.452681,23419,1638480619,451653726,world,-3.496429199291018,0.20817736269586204,0.47614548987920474,0.005696766734689178,-0.0016692475795075732,0.0017867227644064127,0.9999807838568959
1638480619.462514,23420,1638480619,461671599,world,-3.496440302228679,0.20818890412926172,0.4761444426672094,0.006870516573644005,-0.0018243936291639496,0.0017106549635183446,0.9999732702675072
1638480619.4733448,23421,1638480619,471601021,world,-3.496313430100681,0.20822127153630737,0.47619949565196323,0.007522535804684597,-0.0016020309338329176,0.0015602295752476882,0.9999692048436426
1638480619.4830716,23422,1638480619,481522635,world,-3.496307458305134,0.2081511558395234,0.47617959777126234,0.0050430715597913475,-0.0007735028420848817,0.000956185863671706,0.9999865273248386
1638480619.4926293,23423,1638480619,491694723,world,-3.496492935853878,0.20805073759281204,0.4762365104909921,0.0034835394269189888,-0.0015468407282389232,0.003116843189464002,0.9999878786892143
1638480619.5033913,23424,1638480619,501449450,world,-3.4963868505492597,0.20814198635440048,0.47626677937371653,0.000982769272439137,-0.001149593277619147,0.0019678858599458033,0.9999969200078047
1638480619.5125833,23425,1638480619,511760519,world,-3.4963945491254163,0.20814678369694128,0.4761214713487069,0.007491558646582017,-0.0018977737458336392,0.0018606235616577041,0.9999684060428192
1638480619.5238514,23426,1638480619,521499181,world,-3.4970258000664707,0.208019394404239,0.47624248335666525,-0.00036945516681432795,-0.0015045734424701154,0.002705270312926341,0.9999951406252782
1638480619.53295,23427,1638480619,531492574,world,-3.496224379549705,0.2080219418141451,0.47610195687841833,0.006187147214296972,-0.0020126184728330157,0.00283031177788694,0.999974828638937
1638480619.5430806,23428,1638480619,542081830,world,-3.4963706431827597,0.20796077811206043,0.4761673601488206,0.005984708524360494,-0.0019059180244115682,0.0037444034304998084,0.999973264734269
1638480619.5532546,23429,1638480619,551442397,world,-3.496438218543179,0.20819966648402172,0.4761600883243267,0.005751773972496358,-0.0016898189935972228,0.0016771757055015159,0.9999806241570841
1638480619.5637016,23430,1638480619,562380788,world,-3.4964766563496283,0.2080350185415686,0.47621013384517774,0.0036443293328401885,-0.001682727495105596,0.0034657214981964665,0.9999859379343232
1638480619.574045,23431,1638480619,572010582,world,-3.496459611506852,0.20818571516683346,0.4761575522779468,0.005393765765567833,-0.0017591946705147565,0.001605102422357388,0.9999826179345275
1638480619.5829594,23432,1638480619,581670361,world,-3.4963384341519914,0.20793459516683305,0.47615057708772435,0.006070631098480566,-0.0017662464928444946,0.003925660701289668,0.9999723081163053
1638480619.5928829,23433,1638480619,591678922,world,-3.4965169429901426,0.20825349721751182,0.4762699039058696,0.001624538076850454,-0.0012585055861392242,0.0014864918827559262,0.9999967836856322
1638480619.6028717,23434,1638480619,601683259,world,-3.4963283564267944,0.2080625220031734,0.4760989161777584,0.005312024469072317,-0.0012525613042309973,0.0016591284504713546,0.9999837302571499
1638480619.6136882,23435,1638480619,611542246,world,-3.496568979743261,0.2081243890971417,0.4762034007703083,0.005703748515425721,-0.001774832075709023,0.0028766340265046334,0.9999780208587854
1638480619.6233304,23436,1638480619,621548823,world,-3.4963684058426323,0.20809187360298295,0.47609259936433296,0.006190364232282393,-0.0012594218958304178,0.0013491724459630265,0.999979136272788
1638480619.632928,23437,1638480619,631732624,world,-3.496368639943927,0.2082350965312869,0.4761776790177962,0.007967112946010688,-0.0015373389334664886,0.0012565906592956165,0.9999662907719562
1638480619.642755,23438,1638480619,641576026,world,-3.4965980974456947,0.20802720057101523,0.4761208786488929,0.004819660650975928,-0.0022755585054606725,0.0038165302588401423,0.9999785131698986
1638480619.652604,23439,1638480619,651490376,world,-3.496445842686383,0.2079297659326907,0.4761525238040431,0.0038610703051718924,-0.0022105981353111,0.004466704634185699,0.9999801267733742
1638480619.6633146,23440,1638480619,661549179,world,-3.496286304479378,0.20811854393721407,0.47615253701382454,0.006063332090315228,-0.0006918579971673282,0.0011092247095210398,0.9999807632934836
1638480619.6730466,23441,1638480619,671453928,world,-3.4964591783151513,0.20817205769320613,0.47615733836603075,0.005511727586212201,-0.0015657977783295823,0.0016115501261940613,0.9999822858643667
1638480619.6827888,23442,1638480619,681458969,world,-3.4964153021649533,0.2082446274900461,0.4762308693230679,0.005742035064238711,-0.0014369588815163251,0.0012491681450783937,0.9999817017133061
1638480619.6927743,23443,1638480619,691447817,world,-3.4965286240660722,0.20799958407355595,0.47608593221082257,0.0064809464897251454,-0.0023775420302804915,0.0039114354886730625,0.9999685221540275
1638480619.7034059,23444,1638480619,701480603,world,-3.49636988172412,0.2081357391838496,0.4761183846300995,0.007438216030864835,-0.0020191523619262387,0.002100642786000739,0.9999680911238635
1638480619.7129903,23445,1638480619,711577520,world,-3.4965413318134644,0.20798802035683628,0.4762431936839837,0.00041573965039197057,-0.00178691394697378,0.0038911108007419278,0.9999907466351006
1638480619.723284,23446,1638480619,721538399,world,-3.496634631302203,0.20801464220360516,0.47616165377693004,0.0053388631690073985,-0.0020367360451370624,0.003905394740595336,0.9999760477822782
1638480619.7326107,23447,1638480619,731720407,world,-3.496240532044125,0.20803176644316987,0.4761150761783518,0.005294592834986404,-0.001887384772216827,0.002482132738642674,0.9999811218630585
1638480619.7430625,23448,1638480619,741605668,world,-3.496340395815455,0.20789124966081857,0.4761254423581085,0.0038279208964547237,-0.0018968768840916719,0.00457122539116479,0.9999804261974933
1638480619.752831,23449,1638480619,751654838,world,-3.496445480704363,0.20793185117774798,0.4761139281716859,0.005210416463147915,-0.002289898238862196,0.004238725258536793,0.9999748202502495
1638480619.7626667,23450,1638480619,761780716,world,-3.4963846839668595,0.20818510651774594,0.4762200474990987,0.0045252889670678855,-0.0015771288622235498,0.0018615160537110206,0.9999867845038246
1638480619.7724977,23451,1638480619,771492562,world,-3.4963965524307645,0.2082200885706335,0.4761817249942321,0.00872810846562102,-0.001640207652232984,0.0012492216367552627,0.9999597838347163
1638480619.7825038,23452,1638480619,782057273,world,-3.496603385379098,0.20802646753058243,0.4761127454682791,0.00512525805209405,-0.0020972852669674837,0.003661691638775562,0.9999779623265459
