Time,header.seq,header.stamp.secs,header.stamp.nsecs,header.frame_id,pose.position.x,pose.position.y,pose.position.z,pose.orientation.x,pose.orientation.y,pose.orientation.z,pose.orientation.w
1638480235.7140453,1566,1638480235,712112917,world,-3.4962625387682094,0.20804194510654916,0.4761594753087293,0.004749730022417236,-0.001179185994911932,0.001627074199187705,0.9999867010188955
1638480235.7230964,1567,1638480235,721743934,world,-3.4963527162558314,0.20814075982547775,0.4761602074804714,0.007688454744503936,-0.0019901709442541084,0.0018531276809656328,0.999966745847607
1638480235.7329116,1568,1638480235,732062924,world,-3.496368176811356,0.20811890056124266,0.476151130805887,0.004750116588763209,-0.001047391971200753,0.0021029983092395407,0.9999859582816967
1638480235.7427638,1569,1638480235,741903168,world,-3.496394140663454,0.20818311338360573,0.4761953078220296,0.006817500958814883,-0.001849865596431317,0.0017164704341885997,0.9999735763544958
1638480235.7533503,1570,1638480235,752038532,world,-3.4964480767687642,0.20813479093383555,0.47612265347367355,0.005144014063853374,-0.0005526707694379942,0.0010922377213594195,0.999986020247829
1638480235.763062,1571,1638480235,761868472,world,-3.496373948260497,0.20807172242380909,0.4760518288439792,0.005579545256993854,-0.0008597989866769452,0.0014850124369150126,0.9999829619340973
1638480235.7731485,1572,1638480235,772107489,world,-3.4964234933344485,0.20812641439293328,0.47617406874112506,0.005230489877418126,-0.001257400035171294,0.0011558169371855267,0.9999848623894271
1638480235.7839453,1573,1638480235,782550934,world,-3.4964000026884983,0.20825733199347188,0.4762561128897013,0.007691515512353579,-0.0012645336242523009,0.0010858022242189627,0.9999690308091378
1638480235.7943487,1574,1638480235,791853005,world,-3.4964809441027214,0.20820894231522322,0.47614874551388003,0.00472844903130881,-0.0010443360484872503,0.0016322198180505022,0.9999869434099837
1638480235.8037243,1575,1638480235,801972528,world,-3.4964047318183784,0.20821865205726245,0.47622305648800967,0.006835247902849494,-0.0007323278395311773,0.00046205090542250773,0.9999762645138148
1638480235.8133016,1576,1638480235,812259037,world,-3.4963903722746004,0.20810288711193634,0.47615043858625766,0.005603651967744865,-0.0011311547248162755,0.0008965640446749319,0.9999832577331118
1638480235.8271735,1577,1638480235,821688603,world,-3.4963414978031455,0.2081535297284836,0.4762269307500351,0.005792941994743634,-0.0017656801844559652,0.0019477136085352383,0.9999797650993899
1638480235.834099,1578,1638480235,831857473,world,-3.496397254575681,0.20809441846509175,0.4760643684678117,0.005285124638691206,-0.000907051426325868,0.0016164734794676691,0.9999843157413789
1638480235.8434334,1579,1638480235,841854301,world,-3.496362445615509,0.20809092472149984,0.4761594485483566,0.003913334482770788,-0.0009165096414415289,0.0012196294688235833,0.999991179124727
1638480235.853379,1580,1638480235,852481532,world,-3.4962642525329803,0.20803600599293173,0.47612205425529214,0.005282717598375711,-0.0013391190640843597,0.0018588854206647166,0.9999834219625348
1638480235.8646123,1581,1638480235,861968989,world,-3.4963946036171523,0.20814858400056116,0.4761789461900513,0.005217082495983929,-0.0010740786716107154,0.001111226465560326,0.9999851966809207
1638480235.8741915,1582,1638480235,871878165,world,-3.496403230518328,0.2081133855273387,0.47618154595577,0.005607369631060567,-0.001207170008314632,0.0011227393937897237,0.9999829196554536
1638480235.8838177,1583,1638480235,881937461,world,-3.4963860944195777,0.20812488705614607,0.4761414367273761,0.004634420535298648,-0.0008531073812592687,0.0011076028529085143,0.9999882837163735
1638480235.8928192,1584,1638480235,891614560,world,-3.4964396713509527,0.208089965551783,0.47612542081588527,0.004526973759922281,-0.0011337756970206238,0.0026700699417504486,0.9999855457894139
1638480235.902769,1585,1638480235,901620925,world,-3.4963608715205523,0.20816197713564152,0.47623325809404116,0.004614717325581986,-0.0014797503485331899,0.001955033067481694,0.9999863461910947
1638480235.9128706,1586,1638480235,911963052,world,-3.4963262616416206,0.20811902319812825,0.4762150666244442,0.005220141794471207,-0.0017044903965024848,0.0018881606410960671,0.999983139698629
1638480235.9227402,1587,1638480235,921552499,world,-3.496407939988837,0.20821311729429637,0.4762319272088715,0.006463537430522964,-0.0007159514353457366,0.00039596792163343423,0.9999787764281958
1638480235.9325645,1588,1638480235,931650357,world,-3.4964208048182934,0.20810790365631296,0.47617723418274277,0.005069190491859901,-0.0011784236034872012,0.001164261914647956,0.9999857794587692
1638480235.9425218,1589,1638480235,941638033,world,-3.4965654960017183,0.20794472501290434,0.4761561336186612,0.005521458433543481,-0.0014869882395956776,0.0034072394060720304,0.9999778462957926
1638480235.952946,1590,1638480235,951759028,world,-3.4963525841723175,0.20810603215711104,0.47616558744918835,0.0070547387857857,-0.001871708593723717,0.001978990746811834,0.9999714050727794
1638480235.9634624,1591,1638480235,961611177,world,-3.496393525065289,0.2081233560151106,0.4761658879212327,0.006026204005190028,-0.001117492749038721,0.0011399893611489292,0.9999805680609499
1638480235.973634,1592,1638480235,971805777,world,-3.496406421381649,0.20823495680594659,0.4762195993721589,0.005604144996522731,-0.00031029701219535726,0.00029049910137790173,0.9999842063177271
1638480235.9837554,1593,1638480235,981745802,world,-3.4963970174179,0.20814031026261057,0.47616409945105304,0.005333017147462912,-0.0010298041028004423,0.0011589948978013042,0.9999845774622936
1638480235.993038,1594,1638480235,991731622,world,-3.496477714915502,0.20819205786759434,0.476154898043554,0.005362476539020852,-0.0011537115593400426,0.0015122572467238806,0.9999838128055004
1638480236.0034823,1595,1638480236,1713762,world,-3.4964172962996276,0.20818732950083538,0.4762688860076829,0.004789364165027759,-0.0016973177326231193,0.0016421232033580388,0.9999857421657542
1638480236.0128555,1596,1638480236,11762561,world,-3.4964797467510302,0.2081377691007605,0.4761465110823971,0.004758076366115906,-0.0005119071184562726,0.0011123893470339318,0.9999879305523327
1638480236.0226586,1597,1638480236,21796222,world,-3.502348183261537,0.20964624998144318,0.4752879716934779,0.004776024645505176,0.0010174369069443473,0.01166126266358291,0.9999200814884242
1638480236.0333765,1598,1638480236,31776313,world,-3.496397048010354,0.20815267924816902,0.4761589315007793,0.005271077528474987,-0.0010252648656823324,0.0010200161020626217,0.9999850619588254
1638480236.0432072,1599,1638480236,41825272,world,-3.496439746013464,0.20812560662638524,0.476153727682717,0.004520538841633691,-0.0010117724246855606,0.001116006405582408,0.9999886477229852
1638480236.0535822,1600,1638480236,51838485,world,-3.496333752438794,0.20812119082649588,0.4761336331049335,0.00790962147433455,-0.0020227843800096723,0.002078604705879064,0.9999645121872883
1638480236.0630703,1601,1638480236,61790990,world,-3.4964801793710056,0.20794617739117777,0.47610420377666224,0.007381104615763552,-0.002540932885597143,0.004008687152783231,0.9999614959497358
1638480236.0738769,1602,1638480236,71761193,world,-3.4963919919534976,0.2081368533629169,0.47616111419461865,0.005170957460824789,-0.0010297763418822814,0.0011479522345062354,0.9999854413766689
1638480236.082968,1603,1638480236,82202333,world,-3.496530883007741,0.20797862479723433,0.47612049371664483,0.004029664516165227,-0.0017974290368857346,0.0032212486355978095,0.999985077193641
1638480236.0933836,1604,1638480236,91806851,world,-3.4963097654511213,0.20779573707691168,0.4760928261776793,0.004838116464118547,-0.0017163451186527846,0.004190203451298013,0.9999780442507475
1638480236.1034522,1605,1638480236,101707258,world,-3.4964988049651438,0.20797848901711402,0.47618724198954043,0.00373936943317102,-0.001929053870853,0.003799441747059344,0.9999839299257846
1638480236.1129584,1606,1638480236,111636882,world,-3.4963403876414887,0.20814902041104616,0.4761565472803485,0.0074920227784841635,-0.0017830190949782634,0.0018276835659278624,0.9999686745145454
1638480236.1231613,1607,1638480236,122417465,world,-3.496339613535427,0.20813186194969888,0.47613115091737873,0.008205778553500478,-0.0019216207646646014,0.0020178587953289346,0.9999624497039126
1638480236.1333423,1608,1638480236,131729391,world,-3.4963063314293374,0.2081144330403885,0.476213772864784,0.005164223566299975,-0.0016795885797396366,0.0019888003558714592,0.9999832770853245
1638480236.1444798,1609,1638480236,142247560,world,-3.4964190352399647,0.20810562356040027,0.47617110591865447,0.005345590112988394,-0.001119538727252104,0.0011497764720879559,0.9999844245354257
1638480236.1534183,1610,1638480236,151688933,world,-3.496527705404778,0.20831067721875082,0.4763614116190383,0.0022219100767506177,-0.00021498487090159044,0.0006469118722242085,0.9999972991974256
1638480236.1633577,1611,1638480236,161996946,world,-3.4962228354358103,0.20815845139665437,0.47625737629796727,0.006605434449588945,-0.0013404759573580176,0.0014729513248168196,0.9999762006039619
1638480236.1726785,1612,1638480236,172031184,world,-3.496524041968091,0.20820262358545158,0.4762586003374506,-0.0008092850372648918,6.69288032030962e-05,0.000969924370973834,0.9999991999121691
1638480236.1832669,1613,1638480236,181793663,world,-3.4964151593209594,0.20819887102109483,0.47623836989214524,0.005411762895600595,-0.0016244690610515578,0.001587208535601031,0.9999827771975356
1638480236.1935158,1614,1638480236,191787291,world,-3.4963754834857395,0.2082291635050028,0.4762795605305291,0.006481900707977292,-0.0013742406373390005,0.001096471449406678,0.999977446833799
1638480236.2037272,1615,1638480236,202233551,world,-3.496262014494651,0.20810114251101428,0.47620429833094957,0.005319451908659797,-0.0018360603350780283,0.002064329178023727,0.9999820352680753
1638480236.2135158,1616,1638480236,212657314,world,-3.496406819577052,0.20813073457652959,0.4761665239917938,0.005672189271978028,-0.0012133823684523063,0.0010720286251081862,0.9999826022120174
1638480236.2234137,1617,1638480236,222052221,world,-3.4963641030603063,0.20810576958631427,0.4761628284026706,0.006845078251761772,-0.0017692471037873347,0.0017726803277346428,0.9999734357836055
1638480236.2326734,1618,1638480236,231590785,world,-3.496420766089691,0.20812139007022412,0.4762414891464216,0.0003702909870524481,0.00029789536240465984,0.00039347032073212265,0.9999998096620044
1638480236.2432356,1619,1638480236,241689890,world,-3.496458901896674,0.2081698159168751,0.47628285258279707,0.0021588868073472776,-0.0006971587696666117,0.0009282760523615103,0.999996995735974
1638480236.2532384,1620,1638480236,251924235,world,-3.496212899266346,0.20798332522436344,0.4760998459183536,0.004993140147454661,-0.0012046578738102156,0.002741541458654372,0.9999830505070102
1638480236.2630937,1621,1638480236,262075375,world,-3.4967575663547534,0.2080496578384372,0.4760927991731297,0.002609663605091556,0.0002882161612602389,1.714327726825233e-05,0.9999965531407701
1638480236.2734704,1622,1638480236,272371163,world,-3.496816188113381,0.20807181448274342,0.47620587886972987,0.003349608896789421,-0.0005584169041306824,0.00020478239179407272,0.9999942131607421
1638480236.28343,1623,1638480236,281724788,world,-3.4968250719283986,0.20816512137281398,0.4761505673542698,0.004705553717495479,-0.0007555280867003654,0.0006676964636503832,0.9999884204944347
1638480236.293526,1624,1638480236,291750322,world,-3.4966192394435875,0.20800094608786043,0.47617669323273326,0.002714967532577085,-0.0007927327889368342,0.0009147921158453911,0.9999955818309435
1638480236.303612,1625,1638480236,301887989,world,-3.49634209848117,0.2081955251511912,0.4762276214018203,0.008853348475029344,-0.00154756859697245,0.0012435627600568648,0.9999588375547661
1638480236.313277,1626,1638480236,311624995,world,-3.4964632455287568,0.20822619014390342,0.4763162666588767,0.0027467571588272923,-0.001311447193595707,0.0013813014764797117,0.9999944137031967
1638480236.323602,1627,1638480236,322252097,world,-3.496436951351032,0.20818166569032734,0.4762223432297679,0.006223510051592331,-0.0016768365615678106,0.001630052313903736,0.9999778992913982
1638480236.333298,1628,1638480236,331856616,world,-3.496229211512301,0.20805569497039875,0.4761743416118873,0.008007502687108925,-0.002231779730898251,0.002704946908237649,0.9999617904311006
1638480236.3426082,1629,1638480236,341787008,world,-3.4964053532346617,0.20814670803292168,0.47615586976416524,0.0059437341589167,-0.0011810756825656945,0.0011246217540233081,0.999981005974809
1638480236.353135,1630,1638480236,352505923,world,-3.496293299895953,0.20802187740276853,0.47605206224957575,0.004131514863564923,-0.0004267893276304758,0.0018370651023005013,0.9999896867606245
1638480236.3627808,1631,1638480236,361570796,world,-3.4968371172322095,0.20817705240445156,0.47632648268999234,0.000747798231724562,-0.0009128024264106515,0.000751560019193495,0.9999990213730574
1638480236.3729603,1632,1638480236,372101509,world,-3.496921312004851,0.20790162744031432,0.47614390665700634,0.0024792855650450966,-0.00138550206080872,0.002360800186278056,0.9999931800515478
1638480236.3831813,1633,1638480236,381987579,world,-3.4968666070060133,0.20791905122375112,0.47611968697880575,0.0037735209195937694,-0.0012350822833752677,0.002248405639288078,0.9999895898376662
1638480236.3936908,1634,1638480236,391893650,world,-3.4963388937103863,0.20808547729119378,0.4761439651974675,0.0074655800374446805,-0.0013967985396641886,0.0012770921905771522,0.9999703411122158
1638480236.4036255,1635,1638480236,401747046,world,-3.4963757540233877,0.208067781214686,0.47608830535740276,0.006998153686094913,-0.0013747999600323905,0.0013434620102452772,0.9999736650931779
1638480236.4130342,1636,1638480236,411719393,world,-3.4962419249107497,0.20803434228422682,0.4760526143078717,0.0051327029497651114,-0.0011255997613092554,0.0018057053960005467,0.9999845637876766
1638480236.4232612,1637,1638480236,422044078,world,-3.49643051878369,0.20811617969440738,0.4761505823059965,0.004806029656815724,-0.0011162323412656327,0.0012176637555222662,0.9999870866162606
1638480236.4335296,1638,1638480236,432974429,world,-3.4963876827627995,0.20811833103547026,0.47630714487606096,0.004906471286161587,-0.0016485648697742866,0.0018113355613197987,0.9999849638053927
1638480236.4435444,1639,1638480236,441667698,world,-3.4963737993558355,0.20810286964033042,0.4761640774453073,0.006785698892564667,-0.0013882571918061015,0.001981645359688358,0.9999740497203803
1638480236.4530125,1640,1638480236,451694544,world,-3.4963723483224847,0.20809399850742621,0.4761176301334904,0.00643733981527211,-0.0011529730764225418,0.0015176334627051615,0.9999774637949902
1638480236.463113,1641,1638480236,461804626,world,-3.4963350592841307,0.2081294429724626,0.4761773482745139,0.004105393123692987,-0.001650610054492232,0.002128577865928789,0.9999879451223485
1638480236.4735074,1642,1638480236,471846768,world,-3.4964354218704927,0.20817329041911917,0.4761238446635419,0.005629874168940045,-0.00131582690516447,0.0010920461404790851,0.9999826901259965
1638480236.4832644,1643,1638480236,482265507,world,-3.496407365773655,0.20814996935776076,0.47620587555845434,0.005192222632281166,-0.0017244709410809596,0.001950752187481082,0.9999831306527193
1638480236.4930615,1644,1638480236,491843432,world,-3.496362827171574,0.20811875774198493,0.4761684784045352,0.006063702353033078,-0.001305598003122022,0.000974401975051902,0.9999802885399387
1638480236.50347,1645,1638480236,501589558,world,-3.496556506205388,0.20794010970218924,0.4761046481423604,0.0030161490423669113,-0.0009483902507178867,0.003246290726831367,0.9999897324459904
1638480236.5135016,1646,1638480236,511905059,world,-3.5003810930726784,0.20845798147442363,0.4752790437577079,0.011238516002258012,-0.00035301319175139157,0.007800423076776531,0.9999063578853655
1638480236.5233417,1647,1638480236,522183919,world,-3.496495560288692,0.20822365296026518,0.47623163246750083,0.0066540944293741276,-0.001789660749703783,0.0015240730303335184,0.9999750983615162
1638480236.5332768,1648,1638480236,531751443,world,-3.4963480003313316,0.20812009240597554,0.47616596628056856,0.007539329180868512,-0.0019965298264224916,0.0021703782444658704,0.9999672303842915
1638480236.5433116,1649,1638480236,542213000,world,-3.4961767395431584,0.20808992263928572,0.4761569569274684,0.0063522883821930335,-0.0005068649523868572,0.0011587166062032139,0.9999790242280365
1638480236.5530112,1650,1638480236,552061212,world,-3.4964310300255783,0.20820772776122753,0.4761811054855021,0.005993837859912118,-0.001708765628976121,0.0015510689001607685,0.9999793738937827
1638480236.5627651,1651,1638480236,562165886,world,-3.496435314740384,0.2081535145608443,0.47616730854204314,0.004731317277367904,-0.001188104728772113,0.0010683389939279504,0.9999875307701434
1638480236.5726938,1652,1638480236,572029715,world,-3.4963351621216905,0.208069351601214,0.47619115886593044,0.004544690361855838,-0.0011437587318099938,0.0016473914399568928,0.9999876617773452
1638480236.583106,1653,1638480236,581661851,world,-3.496433384895671,0.20814049705879062,0.47621642456427926,0.005815101807169506,-0.0012473867381291787,0.001208253324021812,0.9999815842010308
1638480236.5934985,1654,1638480236,591924933,world,-3.4964194823207797,0.20817450820181227,0.47622789370386254,0.0073357603664017295,-0.0018026017064421559,0.0015212512813956962,0.9999703110800208
1638480236.603144,1655,1638480236,601871198,world,-3.4963829328211977,0.2081247566066843,0.47610745940291876,0.005986577898238694,-0.0011711979870183292,0.0010769128434070761,0.9999808145354946
1638480236.612942,1656,1638480236,611537864,world,-3.4962595978674296,0.20810782744237405,0.4761034141176044,0.005971904568980431,-0.0007866828650981319,0.0010734232741041203,0.9999812824490085
1638480236.6230052,1657,1638480236,621782609,world,-3.49636223619862,0.20814607075566205,0.4761792400941548,0.008503370518259909,-0.0010652963000626905,0.000924152118893198,0.9999628511982251
1638480236.6334398,1658,1638480236,631453340,world,-3.496332835475577,0.20794540696209707,0.4762691093164693,0.006362818792782831,-0.0018047373733062165,0.003814652919843542,0.9999708525167745
1638480236.6430476,1659,1638480236,641751560,world,-3.4964231937399464,0.20816859761009324,0.4763123165330249,0.005372306838225306,-0.0018462812775189475,0.0016286217481669143,0.9999825384254876
1638480236.6531272,1660,1638480236,651796422,world,-3.49637193795793,0.2081516578966706,0.47612537453007003,0.00791453117098165,-0.001957848051982319,0.001893326266046183,0.9999649705579688
1638480236.6634295,1661,1638480236,661658811,world,-3.4964971067385893,0.20819151452297968,0.4762093503997881,0.0015615732405499004,-0.0008589779932629892,0.0010709706549077197,0.9999978383315026
1638480236.6731908,1662,1638480236,671643062,world,-3.4963076951466228,0.20800074717463363,0.4759982065615378,0.005956937214998406,-0.00047257898068234385,0.0009715566767703128,0.9999816736549464
1638480236.6829917,1663,1638480236,681763897,world,-3.496391430241755,0.20816093285830867,0.4762157236212103,0.007553135598436896,-0.0018179193547368923,0.0017686336956320358,0.9999682581195777
1638480236.693227,1664,1638480236,691817912,world,-3.496418190946721,0.208195615935081,0.4762543678607791,0.006382934690501025,-0.00155777963293149,0.0014259402292021016,0.9999773988255009
1638480236.7031913,1665,1638480236,701909689,world,-3.4965385384243137,0.2079967113409728,0.4760772275527545,0.004853891046818195,-0.0018186977590909318,0.00388718518785084,0.999979010715466
1638480236.7133803,1666,1638480236,711849138,world,-3.497015341524895,0.20798273162789038,0.47624167308272747,-0.0015605765721768566,-0.0008462930514134371,0.002151911253885345,0.999996108825824
1638480236.7231045,1667,1638480236,721797707,world,-3.4964520734331246,0.20817068284474494,0.4762087719465441,0.006626801691502654,-0.0018240496549247703,0.001633210663813141,0.999975045171191
1638480236.733089,1668,1638480236,731646399,world,-3.496389913924007,0.20813003744318065,0.47619439925174645,0.005605611287119354,-0.0011360487880573953,0.0009302881624375779,0.9999832103986467
1638480236.7433448,1669,1638480236,741834053,world,-3.496562579244032,0.20794000491368422,0.47610493666383946,0.004790188145915417,-0.0017121332864266637,0.0033768607895886178,0.9999813595804393
1638480236.7529995,1670,1638480236,751805856,world,-3.4962404538053597,0.2080266746783149,0.47612591195033804,0.004085145289017748,-0.0010735741551601275,0.0019247994823786696,0.9999892270286984
1638480236.7629738,1671,1638480236,761739288,world,-3.4964456283102625,0.20823995015984773,0.47622592447809,0.004071754499035232,-0.001443659465022275,0.0016125823667849876,0.9999893680638606
1638480236.77312,1672,1638480236,771747253,world,-3.4962514972824317,0.20808362905067024,0.4762140558917689,0.005009040911865135,-0.0005611389624781244,0.0011328772735991473,0.9999866555216081
1638480236.7829244,1673,1638480236,781692686,world,-3.496158528467987,0.20794846439118772,0.4761786476353461,0.006277415839373576,-0.0012929515034475793,0.0019857307794134485,0.9999774893466657
1638480236.793203,1674,1638480236,791768398,world,-3.4964429876263083,0.20819812261366313,0.47624516225681124,0.005953835693845186,-0.0016499579438537166,0.001723987324020369,0.9999794284619163
1638480236.8036666,1675,1638480236,801878032,world,-3.4963351298852516,0.2080885052003606,0.4760825181242735,0.006404786768128505,-0.001234503725737982,0.0012501279782557537,0.9999779457003259
1638480236.813638,1676,1638480236,811669473,world,-3.496535750888294,0.20822464153171624,0.476125295969979,0.004883292695973409,-0.00119916142604885,0.0015066778863662544,0.9999862225981249
1638480236.8240204,1677,1638480236,822399556,world,-3.4964490510122594,0.20820220174416945,0.47623688426665445,0.006639054220082917,-0.0017190351230211033,0.0017454723388740509,0.999974960288318
1638480236.8337855,1678,1638480236,832043661,world,-3.496544321977105,0.2079559202124148,0.4761234046985058,0.003291696341760496,-0.0015252802315335135,0.0032587385260468256,0.9999881093686204
1638480236.8430436,1679,1638480236,841701302,world,-3.496154431462451,0.2080009486201979,0.47619963920659225,0.0067387612062508855,-0.0020197328348465237,0.0027726719726469035,0.9999714106247304
1638480236.8536339,1680,1638480236,851949600,world,-3.4964590538292626,0.2081970012395524,0.47635548717646475,0.000531268291948747,-0.000631601676760067,0.0008787032842963163,0.999999273356667
1638480236.8636599,1681,1638480236,861736240,world,-3.4961995458771935,0.20797584168408995,0.4761254924991735,0.005535481562417439,-0.0012672966654099418,0.0019862531515390915,0.9999819034369832
1638480236.8733723,1682,1638480236,872496630,world,-3.4964146777843492,0.2082566757223072,0.4762425282688383,0.008976605220865647,-0.0013595904643091742,0.0010650206138123014,0.9999582180289186
1638480236.8836472,1683,1638480236,881823661,world,-3.496526750658154,0.20827195691303235,0.4762876621845575,0.00256288444203922,-0.0011477261369691606,0.0011730184136417635,0.999995369177204
1638480236.8940198,1684,1638480236,891669345,world,-3.496251386905481,0.20804195656506141,0.4761024486232621,0.005347913362671534,-0.0011272502678545088,0.0014688207223843724,0.9999839857193636
1638480236.9038389,1685,1638480236,901595321,world,-3.4963211034659953,0.20821965681893997,0.4761970066885381,0.008581654833595576,-0.0015105164434185412,0.0011482304433176203,0.9999613768077448
1638480236.913617,1686,1638480236,911939816,world,-3.4965446512669844,0.2079503798028977,0.4761623580644587,0.00461944584609257,-0.0018020581653517389,0.003294141514324914,0.9999822808120788
1638480236.9241066,1687,1638480236,921785756,world,-3.496401483951675,0.20816205434458937,0.4763103813038178,0.0007284509144150368,-0.000646549759457831,0.0013313975425257865,0.9999986393557031
1638480236.9338772,1688,1638480236,932098120,world,-3.4965219498575744,0.20796606349152683,0.4762520161335129,0.004289837915800085,-0.002075482073063698,0.004140354630621311,0.9999800733656414
1638480236.9440382,1689,1638480236,941703055,world,-3.4963720562763427,0.20807629543412096,0.4760820017926588,0.0051719649815314935,-0.0012110513177339991,0.001569126170291615,0.9999846608703542
1638480236.9535997,1690,1638480236,951753038,world,-3.4963392010358505,0.20809400071620252,0.4760623304889162,0.00741970828534699,-0.0012163564128407664,0.0011786877745488136,0.9999710391312178
1638480236.96384,1691,1638480236,961775595,world,-3.4962952791489004,0.20827843957638847,0.47627410698269085,0.0002240287389509495,-0.0005826930581581064,0.0013532730918753885,0.9999988894653149
1638480236.9732091,1692,1638480236,972266594,world,-3.4962256846025377,0.20820050744344262,0.47631441202219,0.004598962297800394,-0.0012291260395159646,0.0015859961668591924,0.999987411626327
1638480236.9832942,1693,1638480236,981979406,world,-3.4964370736224275,0.20819089908486868,0.476330329490101,0.0019399460747629767,-0.0007543828848251662,0.0008924394684884288,0.9999974355304544
1638480236.9936044,1694,1638480236,991703996,world,-3.4964254908703394,0.2081363388270855,0.47617614686948967,0.005432139869798451,-0.0012813685085890233,0.0011383817252117877,0.9999837768875194
1638480237.0037024,1695,1638480237,2032265,world,-3.4963209828061212,0.20808081619016924,0.4760480519845254,0.00700770241055371,-0.0012990054396819512,0.0013976037361975305,0.9999736253499838
1638480237.0139284,1696,1638480237,13001305,world,-3.496276129493814,0.20816272246899414,0.47622126798264347,0.006982462764800455,-0.001306287973469882,0.0014439155366618593,0.9999737266215507
1638480237.023735,1697,1638480237,21975453,world,-3.4963685898198467,0.20809103178824476,0.4761097613229512,0.007376270114569848,-0.0012390463211989498,0.0013041727160358369,0.9999711768530819
1638480237.0331073,1698,1638480237,32004858,world,-3.4964068509579236,0.20822174967260418,0.47620728948948576,0.006428149506164463,-0.0006413943377277608,0.0004778878059997047,0.9999790193451434
1638480237.0435314,1699,1638480237,41896239,world,-3.496432929399053,0.20816589355510423,0.476231913894535,0.00583897351064754,-0.0016607364722831094,0.0016540996772215837,0.9999802059525825
1638480237.0536585,1700,1638480237,52779034,world,-3.496160450431262,0.20808955269312968,0.47618924918849154,0.006185444384797076,-0.0006476447531394668,0.0013365814995050537,0.9999797669872785
1638480237.0641792,1701,1638480237,62012492,world,-3.496350108784744,0.20808969549283246,0.47610094928502333,0.006188238008306964,-0.0012752068325623997,0.001235149954140436,0.9999792767665128
1638480237.0727499,1702,1638480237,71681014,world,-3.4963251807476436,0.20806683004312893,0.4761575281908436,0.0047816936232039555,-0.001091565159350509,0.0014586277013042429,0.9999869080627136
1638480237.0834715,1703,1638480237,82507006,world,-3.4963628934159225,0.20815158944886686,0.47615829097029133,0.007655889544784119,-0.0016668332101610005,0.001734451317393375,0.9999677998320522
1638480237.092954,1704,1638480237,91517476,world,-3.4963345323344623,0.20810697656104202,0.47613477642572727,0.006233204422110689,-0.001240230626436199,0.0013731810982348886,0.9999788614587296
1638480237.103832,1705,1638480237,102050972,world,-3.496594537063794,0.20799415656262527,0.4760970533257699,0.0024619646586578735,-0.0010293680351391116,0.0032331232895708153,0.9999912129840253
1638480237.1127734,1706,1638480237,111712101,world,-3.4963616929555945,0.20812770053312069,0.47627724250281456,0.0015968505365468134,-0.0006498980321146468,0.0014150814266441205,0.9999975126196405
1638480237.122654,1707,1638480237,121989263,world,-3.4967821061228253,0.20811209674738076,0.4762251532881436,0.003813982072850273,-0.0013202542806397374,0.0009977308960986509,0.999991357463874
1638480237.1328256,1708,1638480237,131563284,world,-3.4963567747936537,0.20813147206320315,0.47629648587574885,0.0009395151539753066,-0.0006354469668352461,0.0012637673590240948,0.9999985582042057
1638480237.1425667,1709,1638480237,141632915,world,-3.4964130930120345,0.20819731961882437,0.4762400530970499,0.005257073951049902,-0.0015832349690247864,0.001678761454808682,0.9999835190144305
1638480237.1528716,1710,1638480237,151586028,world,-3.49714990666174,0.20815661920752423,0.47624696936229965,0.005281332555835391,-0.0004778043737388024,-0.0012347596372236597,0.999985177189169
1638480237.1624808,1711,1638480237,161798482,world,-3.4961803433060568,0.2080060533004746,0.476151113713701,0.0036000465597202636,-0.001087618630196793,0.0018662830061971184,0.999991186830276
1638480237.1723948,1712,1638480237,171595043,world,-3.496276786540375,0.20805590461021609,0.4761330576817618,0.005539548071647644,-0.0004396854627035704,0.0015222884515132917,0.9999834012231034
1638480237.1832843,1713,1638480237,181504345,world,-3.4963819879839693,0.20813041940605925,0.47625279216108835,0.005182198476723677,-0.0017253983626913131,0.0019826431502147765,0.999983118330293
1638480237.1931965,1714,1638480237,191749026,world,-3.496445928381309,0.2081700553998884,0.4760949549942758,0.00442613792356668,-0.000719355056061603,0.0011950229411199329,0.9999892318178006
1638480237.203461,1715,1638480237,202582890,world,-3.5008844551477454,0.20841355364459538,0.47538295281097415,0.006674189412387946,0.0007461975552377918,0.005412803203476651,0.9999627992812415
1638480237.2130806,1716,1638480237,212037384,world,-3.4962337469589446,0.20800788532542716,0.4761273866047391,0.004851834549084203,-0.0009598327435114566,0.0018650166867077683,0.9999860299701047
1638480237.2230597,1717,1638480237,221599180,world,-3.4963022205355028,0.20813306901165687,0.47618908924274517,0.005112388990775566,-0.001846537847919257,0.0022268978766641794,0.9999827472024857
1638480237.2328913,1718,1638480237,231867990,world,-3.4962982349395046,0.2080549453973548,0.47616893239985864,0.0060091631350543346,-0.0014018381113626265,0.001529892115964034,0.9999797919150365
1638480237.2426534,1719,1638480237,241669062,world,-3.4964661894304645,0.20820124426020648,0.47618792354935063,0.0056822376566816,-0.0010680016177165817,0.0015700975668340215,0.9999820530096468
1638480237.252959,1720,1638480237,251498296,world,-3.4962417779797215,0.20798097314524802,0.47604926159001043,0.004565585153721262,-0.00037326609747266603,0.0012652513528576214,0.9999887075580599
1638480237.2638104,1721,1638480237,261665117,world,-3.4963116174914513,0.20807618969657707,0.4761208552783221,0.004609221884153589,-0.0012607207313467626,0.002392715066755642,0.9999857201837784
1638480237.2727695,1722,1638480237,271744700,world,-3.4964330282847005,0.20816191546592322,0.4761695458145656,0.005977074017484368,-0.0010677703193419357,0.0011282242792886783,0.9999809305995343
1638480237.2833247,1723,1638480237,282113388,world,-3.496499894404563,0.20828887237832708,0.47620543577150865,0.005902075250747687,-0.0007043113425211028,0.0009296745458306713,0.9999819024154919
1638480237.2930613,1724,1638480237,291854041,world,-3.500210962122126,0.2084446177180545,0.47524421671481587,0.011244421062809302,-0.000931027511618107,0.006713458982150529,0.9999138091111804
1638480237.3034568,1725,1638480237,301647273,world,-3.4963496288352487,0.20810485933518927,0.4761341549430317,0.006881013973255846,-0.0014169589803043245,0.0014045439041851836,0.9999743352358447
1638480237.3130693,1726,1638480237,311703560,world,-3.4962442508903684,0.2079673197178253,0.4761100252370711,0.004039673158364505,-0.0007926059731133329,0.0022997873421211866,0.9999888818355562
1638480237.3230958,1727,1638480237,321928527,world,-3.496497677139935,0.20805752912645728,0.4761952378363801,0.006767757868462084,-0.0019729499773357816,0.003001946949535183,0.9999706461873433
1638480237.3331385,1728,1638480237,331982733,world,-3.4964197756610886,0.20819645808186982,0.4762493652578102,0.005968209820995371,-0.0007140208283749239,0.0006600514960649532,0.9999817173217779
1638480237.3427513,1729,1638480237,341794751,world,-3.49634101811034,0.20804379885798277,0.4761755545393355,0.003733401396571704,-0.0008403581910500369,0.001549485169413491,0.999991477267598
1638480237.3535523,1730,1638480237,351800602,world,-3.496566768918205,0.20804681115733925,0.4761163932998509,0.005160678379847253,-0.0021218037994535327,0.0035660085114756694,0.9999780742249266
1638480237.3631294,1731,1638480237,361997184,world,-3.4963956567352232,0.2079329083626031,0.47620842597810714,0.0036061303733076647,-0.0020549156046689087,0.004319826612195524,0.9999820559608202
1638480237.3730245,1732,1638480237,372012828,world,-3.4965218908942344,0.20796511620140068,0.47619250140819164,0.007786922862228715,-0.002431905105122475,0.0037233141117051375,0.9999597924926397
1638480237.3835862,1733,1638480237,381598049,world,-3.4962819330248913,0.2080282139729996,0.4761835946301324,0.004623561973269776,-0.0011659309172325468,0.0017927310924296099,0.9999870246133226
1638480237.3931913,1734,1638480237,391853899,world,-3.4964298193543635,0.20816834127753173,0.47617378965823703,0.00672281050891346,-0.0019012873166207591,0.0017101351124132788,0.9999741318470686
1638480237.403314,1735,1638480237,401941643,world,-3.4964291419515434,0.20827438492912687,0.4762487047079698,0.00770254652238243,-0.0013501064156474815,0.0011066677164147272,0.9999688111517792
1638480237.413183,1736,1638480237,411908100,world,-3.49640814228404,0.20810145305517092,0.4761100962154294,0.006957058517479769,-0.0012552273679804038,0.0011748555254913532,0.9999743213980715
1638480237.42334,1737,1638480237,421879998,world,-3.496414286514198,0.20818487712914086,0.47622694353846345,0.005344189533760155,-0.001786063813997845,0.001753735292504215,0.9999825868617932
1638480237.4331565,1738,1638480237,431754547,world,-3.496357592927727,0.20808514432285746,0.4761273690800636,0.0064341597347348295,-0.0013802579029230876,0.0015055811898769594,0.9999772145913678
1638480237.4432912,1739,1638480237,441668489,world,-3.496401738327714,0.2082456690097135,0.47627109138859824,0.006501195432501889,-0.0007304223229433268,0.0004953456595806914,0.9999784775553204
1638480237.4529312,1740,1638480237,451974805,world,-3.4963825055227034,0.20805639081910304,0.47610396412021966,0.0070341408635934514,-0.001310277930867337,0.001431886529905752,0.9999733765131054
1638480237.4630916,1741,1638480237,461812840,world,-3.4963320620567395,0.20814792565188117,0.47628858039885213,0.002138101794553672,-0.0013363113456532649,0.002030136401139153,0.9999947606557228
1638480237.4738443,1742,1638480237,471710590,world,-3.4964512892244644,0.20813586520927843,0.4761179570846372,0.0059147029928236375,-0.0008989312319627215,0.0011981929449099529,0.9999813860991682
1638480237.4837575,1743,1638480237,481985704,world,-3.4964728559916582,0.20791481699131964,0.47615899020628294,0.0026649068454073764,-0.001632396032054122,0.0036353080651419034,0.9999885089789641
1638480237.4933774,1744,1638480237,492037798,world,-3.4964704097805703,0.208210341123304,0.47619357897437165,0.004966349539199951,-0.0011698787894119276,0.0016286230204903835,0.9999856570686052
1638480237.5033906,1745,1638480237,501638636,world,-3.496954968129527,0.20794657989085513,0.4761443868480373,0.0028235928380877144,-0.0010224900576819014,0.0023169752456179784,0.9999928067057672
1638480237.512955,1746,1638480237,512380911,world,-3.496366682110979,0.20822214441914774,0.4762885799366204,0.006800141359119029,-0.0012660026816281827,0.0012144603977018947,0.999975339896264
1638480237.5230412,1747,1638480237,521557118,world,-3.496451488793322,0.2080842790109603,0.4760944487232726,0.00680753071125928,-0.0012004074853422151,0.0011942643113031662,0.9999753948374126
1638480237.5330734,1748,1638480237,531609244,world,-3.496204281540988,0.2080366281537023,0.4762126398188375,0.005802364536053942,-0.0006865904422185197,0.001315134747795895,0.9999820656291545
1638480237.5431628,1749,1638480237,541657018,world,-3.4965346810215556,0.20801665663578692,0.47613227667681324,0.0036803283897934537,-0.0005346336681726421,0.0027296939372896283,0.999989359003781
1638480237.553427,1750,1638480237,551696024,world,-3.4968525152092007,0.20788329020954693,0.4761379727005486,0.0034329192436633083,-0.0013944840406267523,0.002552477896267508,0.9999898776169267
1638480237.5627763,1751,1638480237,561717844,world,-3.4964033847443154,0.2080843317585795,0.4761558585733591,0.0029589641294056925,-0.000491161391450437,0.0016751309899932334,0.9999940985965541
1638480237.5730784,1752,1638480237,571690062,world,-3.4963664666282024,0.20811322127240472,0.47619207771727345,0.0044360076495137,-0.0008812600333753587,0.0012897520273882248,0.9999889408171448
1638480237.5835638,1753,1638480237,581965080,world,-3.4962533652065186,0.20803466123941539,0.476202511760462,0.005837632598000876,-0.0016452493868027434,0.002518569388827913,0.999978435771662
1638480237.5929394,1754,1638480237,591675204,world,-3.4967157472157675,0.20811540259223263,0.47618250410533053,0.003082216690344424,0.00024679374565468067,0.00010803476748376418,0.9999952136693505
1638480237.6031265,1755,1638480237,601996241,world,-3.500272998613139,0.2085031164961864,0.4752376170364041,0.011819016207654739,-0.0003224420562878394,0.006867141075272374,0.9999065202609971
1638480237.6131938,1756,1638480237,611852996,world,-3.496457767819909,0.2081297842005536,0.4761546131215973,0.004757948321358153,-0.0010030103275805956,0.0012181611122207452,0.9999874359118512
1638480237.6232643,1757,1638480237,621816062,world,-3.4964197605790637,0.20819320644075096,0.47620491842372703,0.006608893052646142,-0.00156688893317911,0.0015823056203636667,0.9999756815546134
1638480237.6334834,1758,1638480237,631723476,world,-3.4963486035678724,0.20809197551258474,0.47612365610752966,0.007987399288937512,-0.001556310191932664,0.0013325132896779865,0.9999660013018035
1638480237.642621,1759,1638480237,642035776,world,-3.4962384415817125,0.20797396317716477,0.4761440044913372,0.004953129524599544,-0.0012259644806947468,0.002013397759522522,0.9999849547610536
1638480237.653127,1760,1638480237,651726283,world,-3.4964305381338843,0.2080927730331899,0.4760331323685851,0.006858699729426552,-0.0008925799693042904,0.0014833868666669664,0.9999749802382178
1638480237.6629171,1761,1638480237,661812491,world,-3.4963988441404585,0.2081021320088759,0.4761885931705328,0.003545678018071169,-0.0009479447301481822,0.0012986029991809615,0.9999924215704994
1638480237.6731265,1762,1638480237,672138200,world,-3.496370915102618,0.20813118427081934,0.4761394377725844,0.007984870047917031,-0.0019211204806365545,0.0019319744511629418,0.9999644086771973
1638480237.6831102,1763,1638480237,682062127,world,-3.496547898733444,0.2079678990399667,0.47614176481224063,0.004196619995713719,-0.001610961788846641,0.0032800172078736567,0.9999845172150631
1638480237.6934938,1764,1638480237,691590705,world,-3.496457506777602,0.20811739342179703,0.4761874167111163,0.0059534321104709725,-0.0012692033143464124,0.0011884630741065088,0.999980766477323
1638480237.7036529,1765,1638480237,701447141,world,-3.4964523266298957,0.20811858140958484,0.47617456942147907,0.0022917002362263946,-0.00047526490720757136,0.0014045670175377362,0.9999962747054554
1638480237.7131236,1766,1638480237,711949403,world,-3.5023615777749693,0.2096492640304897,0.4753923142073254,0.0026503852481747333,0.0011869127473886922,0.011727374343169826,0.9999270150301879
1638480237.7232692,1767,1638480237,722219461,world,-3.4963368084404682,0.20805197624609295,0.4761991951306713,0.0044566739536397075,-0.0011389739871402267,0.0016079164636687866,0.9999881276296103
1638480237.7333634,1768,1638480237,731664354,world,-3.4963645519501725,0.20811992154707798,0.47614315848393685,0.007607526849353467,-0.0008194455530509322,0.0008589177897021982,0.9999703577128937
1638480237.7430005,1769,1638480237,741791141,world,-3.4964461904842166,0.20819869159446763,0.4762222023296401,0.005774256721654892,-0.0017474674183736234,0.0016072337863876588,0.9999805103683221
1638480237.7530932,1770,1638480237,751645272,world,-3.496340382745108,0.2081604292421923,0.4762029913124813,0.005322333795471278,-0.0006659105323464511,0.001824355700183232,0.999983950397411
1638480237.763008,1771,1638480237,761606545,world,-3.500478585690791,0.20872017873043425,0.47533803992406587,0.01510454149618256,-0.0013898473122183031,0.007560643976321863,0.9998563685916604
1638480237.7734993,1772,1638480237,771588684,world,-3.4966270366000836,0.20800164454067607,0.4761523058791416,0.003690626516525964,-0.0014844481876792252,0.003667732597411819,0.9999853616064025
1638480237.7834864,1773,1638480237,781885047,world,-3.5002346634757666,0.20862574568224332,0.4753296766512263,0.013247752126223379,-0.001125519287823254,0.007656631672452533,0.9998822962035918
1638480237.79297,1774,1638480237,791652646,world,-3.4963630703222703,0.20815684000570558,0.4763282833744209,0.001564488069210134,-0.0011778882066012233,0.0017897190407893306,0.9999964809249128
1638480237.8037586,1775,1638480237,801657057,world,-3.4971391196671107,0.20806171845125507,0.4761126589383202,0.006387575251610133,-0.0009213369859132241,-0.0007452879984326511,0.9999788970605143
1638480237.8130467,1776,1638480237,812158808,world,-3.4965071950665876,0.20790064930266186,0.47610402435811633,0.004848155872107108,-0.0014616774768495037,0.0034394368798893703,0.9999812644032601
1638480237.8226757,1777,1638480237,821967593,world,-3.4965288974565096,0.20814147113267997,0.47614602647015686,0.004253209541745778,-0.0005455353377303842,0.0011503012889458877,0.9999901446548031
1638480237.833193,1778,1638480237,831941507,world,-3.4963573030161377,0.20815684967392123,0.4761893885064731,0.00770670557254883,-0.001966635691096741,0.0019997093629068926,0.9999663695323661
1638480237.84259,1779,1638480237,841706130,world,-3.4964127287002427,0.20818623349197551,0.4762662511343299,0.005129212493714719,-0.0016402151502029356,0.001897773777187431,0.9999836995312203
1638480237.8529894,1780,1638480237,851578150,world,-3.496405156006323,0.20814585135873795,0.47617779374397584,0.00483203144706944,-0.0012116261908971934,0.0010339156178766616,0.9999870571425228
1638480237.862723,1781,1638480237,861577217,world,-3.4963454783849834,0.20809385911481387,0.4761868579766994,0.006249957491846276,-0.0015921892927665783,0.001866026037019299,0.9999774602016965
1638480237.872709,1782,1638480237,871958577,world,-3.4965329788209862,0.2083341751629682,0.4763159235649412,0.0026997486884087142,-0.00025701957910652303,0.0005247169803894426,0.9999961849777458
1638480237.8833108,1783,1638480237,881644700,world,-3.4965335658496417,0.20801166702254567,0.4761911343686156,0.0040350183430591215,-0.0011752328999792342,0.002658823607456837,0.9999876339793542
1638480237.8936214,1784,1638480237,891565459,world,-3.4960869263596264,0.208248331850064,0.47615566090019545,0.004624455383839063,0.00021588881165595598,0.0019045043947312325,0.99998747025522
1638480237.9031532,1785,1638480237,901880415,world,-3.496424577816727,0.20813418806466363,0.4762000273576391,0.004746713883556977,-0.0011164534492911903,0.0011136588789608995,0.9999874909232137
1638480237.9131923,1786,1638480237,912016994,world,-3.4965872602268155,0.20795303481265232,0.4761449103643961,0.003641657697679551,-0.0016212481845283985,0.003442386307768311,0.9999861298338318
1638480237.9233778,1787,1638480237,922405938,world,-3.4964304594777187,0.2081404471531783,0.4761721345729695,0.004952988394872103,-0.0009768682251585284,0.0010695957037263565,0.9999866847110823
1638480237.933397,1788,1638480237,931549919,world,-3.4964143520496145,0.20811561664362407,0.476132946121095,0.00694807021075376,-0.0013044849688051195,0.0010236981219050466,0.9999744870152777
1638480237.9431584,1789,1638480237,941605982,world,-3.4964209051105097,0.2081350967248504,0.47616817646652065,0.0053895060284031,-0.0010356407067633267,0.001122752628153026,0.9999843099267269
1638480237.9528146,1790,1638480237,951710911,world,-3.496413308600784,0.20791424843233275,0.4761711590888011,0.00500353192184974,-0.002088457061516132,0.004305183684587209,0.9999760339172392
1638480237.963144,1791,1638480237,961529904,world,-3.4966162694240643,0.20802351829833232,0.4761390807177282,0.003958502910752473,-0.001460872665387542,0.0035591139813389403,0.9999847642906511
1638480237.9728265,1792,1638480237,972178447,world,-3.496440362113817,0.2081386235833723,0.47615308142957924,0.005691436404151049,-0.0012059771471840544,0.0009422096153297396,0.9999826325550953
1638480237.9837098,1793,1638480237,981519430,world,-3.496342733143574,0.20812215700207196,0.47626818881265187,0.004715126750089851,-0.0016079612822601508,0.0020797068332216945,0.9999854283236997
1638480237.9935014,1794,1638480237,992039838,world,-3.496962831407053,0.2079734929674112,0.4760762155874186,0.0063178928878513995,-0.0009705960430421948,-0.00010747504315049913,0.9999795651021545
1638480238.0029495,1795,1638480238,1455578,world,-3.4963628038066785,0.20807862268715838,0.4761034422991062,0.006506956207086153,-0.001361982517960732,0.0013586812246906635,0.9999769789899513
1638480238.0133994,1796,1638480238,11712418,world,-3.4964125589719304,0.20812635413846436,0.4761239324955186,0.006347990103066957,-0.0011742912430302685,0.0013108377540031937,0.9999783026476677
1638480238.023478,1797,1638480238,22453221,world,-3.496230943723797,0.20796687190799973,0.4761098781429402,0.006105776734316394,-0.0014972610579450458,0.0021014767411341967,0.9999780305063214
1638480238.034486,1798,1638480238,32396252,world,-3.4964165134254914,0.20819871847168978,0.4762279883972573,0.00708347725676369,-0.0006415658495492792,0.0005213392639334779,0.9999745701509541
1638480238.0436172,1799,1638480238,42305202,world,-3.4965016129520903,0.20825598773414858,0.47636852483116116,0.0008095031977283914,-0.0009970267973140837,0.0015736642190361924,0.9999979371094043
1638480238.053618,1800,1638480238,51779600,world,-3.496409647975436,0.20808404007861372,0.4761214465743742,0.00746132164795419,-0.0014158904074498266,0.0011738179729413234,0.9999704726065597
1638480238.0639672,1801,1638480238,61830062,world,-3.496356247625122,0.2080928496413772,0.47609594806012406,0.007064435617205489,-0.0011863140604360715,0.0012453048688151485,0.9999735674627327
1638480238.0733037,1802,1638480238,71661567,world,-3.496359646098866,0.20811287151194516,0.47613677412148014,0.006061964244153083,-0.001122531246487816,0.0014667339270867928,0.9999799204007502
1638480238.0839915,1803,1638480238,81782208,world,-3.4964866491264623,0.20817536099003814,0.4761548469278993,0.005295370005246217,-0.001153431999093268,0.0017301524319858906,0.9999838174809096
1638480238.0935242,1804,1638480238,92082635,world,-3.5023860314307833,0.20971098283304673,0.4753809726814362,0.0013629441278468757,0.001433948086519098,0.011719987411245235,0.9999293615407391
1638480238.1036103,1805,1638480238,102457658,world,-3.496434876729795,0.20814165876475368,0.4761897277004362,0.005208275302433024,-0.0010476447458429372,0.001172659876471174,0.9999852004793246
1638480238.1138663,1806,1638480238,111982299,world,-3.4963234439779254,0.20807178348602434,0.47606140993050045,0.007429676846267409,-0.0013512954031980554,0.0013762724922525716,0.9999705394543985
1638480238.123612,1807,1638480238,122255461,world,-3.496297505166372,0.20814040017196028,0.47618358781054576,0.007870345599045434,-0.0015105856431683372,0.0016139749566178533,0.9999665848797177
1638480238.1330874,1808,1638480238,131743908,world,-3.4964927519888573,0.2081293333959094,0.4761224398857789,0.003926649895921602,-0.00061702155636516,0.0011729608628699986,0.9999914123970307
1638480238.1439161,1809,1638480238,141705084,world,-3.4964143922418005,0.20820891595051186,0.4761734284120798,0.006990662926417632,-0.0016557513997371978,0.0014705747339537497,0.9999731129030939
1638480238.1533012,1810,1638480238,151881088,world,-3.496356586493835,0.20808390094721646,0.47618521138927566,0.005150972777171923,-0.0011788073226256758,0.0015997502164622802,0.9999847592298544
1638480238.1635027,1811,1638480238,162587457,world,-3.496590815808892,0.20797382875367149,0.4761435855762756,0.0035073539408905148,-0.0015851860975012416,0.0031901382273294915,0.9999875042576585
1638480238.1734807,1812,1638480238,171972891,world,-3.4963675669790697,0.2081200391239304,0.4762040588357839,0.007756783476005565,-0.0019230397539841744,0.0019992739747742333,0.9999660679902017
1638480238.1840844,1813,1638480238,181795724,world,-3.496447088437888,0.2081107276795598,0.47615613065923595,0.005410244826102377,-0.0010999963123490236,0.0011009895575433708,0.9999841534149574
1638480238.1932101,1814,1638480238,192735865,world,-3.4962308328826293,0.20807126296396153,0.47616918262655294,0.006513287612644174,-0.0008567624716646515,0.001208590825726237,0.9999776909265317
1638480238.2039187,1815,1638480238,201942889,world,-3.496443456734454,0.2081874977382858,0.4761927715590835,0.006063818615887637,-0.0016904661574135358,0.0017596601888285057,0.9999786377838199
1638480238.213884,1816,1638480238,211789787,world,-3.4964955435813603,0.20793740803675576,0.4761599856637947,0.003338669117649841,-0.0013474999212689494,0.0033828705955859808,0.9999877967850502
1638480238.2233205,1817,1638480238,221603884,world,-3.4962342888837896,0.20800740175900473,0.47614369768938064,0.004882747392797689,-0.0013117975244328927,0.002041653362759498,0.9999851346978611
1638480238.2339509,1818,1638480238,231570501,world,-3.496366621074188,0.20808705440442543,0.4761280719263653,0.006647888567472088,-0.0012943770048128337,0.0012041403596135636,0.9999763398259772
1638480238.2431724,1819,1638480238,241632931,world,-3.4964195283787536,0.2081960257995115,0.476187190952631,0.006915427196078543,-0.0018585454382620608,0.0016942863204601555,0.9999729256681973
1638480238.2537963,1820,1638480238,252279712,world,-3.4962709337697655,0.20803376630467652,0.4761557389902603,0.004828888314076137,-0.0012413537738952113,0.0017808372678806141,0.999985984650327
1638480238.2640038,1821,1638480238,261604215,world,-3.4964334371718118,0.2081092314855012,0.47616589621094163,0.00521112778712742,-0.0012238058252410347,0.0010714567502020792,0.999985099102442
1638480238.2741456,1822,1638480238,272592934,world,-3.49642522927606,0.20818252432023351,0.47617739945914156,0.006624876153377284,-0.0017555381664330508,0.0015391013334071944,0.9999753298300834
1638480238.2837183,1823,1638480238,281706289,world,-3.496190134111201,0.20793754136570725,0.47609071561695576,0.006152484445549334,-0.001370797864901328,0.002171968417363068,0.9999777749538012
1638480238.2928402,1824,1638480238,292030973,world,-3.4964525736945786,0.20826984528413092,0.4762987137408646,0.00770718445500556,-0.001253751528089284,0.0011521734234248183,0.9999688494704646
1638480238.3030107,1825,1638480238,301481755,world,-3.4963838179210285,0.208084779597401,0.47609432674922525,0.003950262647273622,-6.136004808188027e-05,0.000625222238312333,0.9999920003465603
1638480238.312608,1826,1638480238,311587739,world,-3.4965233652286725,0.20797149992130573,0.476133367363074,0.00674699952459048,-0.002299213483317457,0.003999645918633274,0.9999665966657583
1638480238.3229277,1827,1638480238,321517298,world,-3.4964648429041314,0.20804257123121317,0.4761327782448656,0.00751780498311862,-0.0017282820966815842,0.0031599663470144412,0.999965254527334
1638480238.3329387,1828,1638480238,331530093,world,-3.4964469719287186,0.20818529490007023,0.4762130361714866,0.006227142481826935,-0.001691007656760572,0.0016943838102660281,0.9999777458789367
1638480238.3430986,1829,1638480238,341486821,world,-3.4963793749027303,0.20804291949784362,0.47611746003371896,0.00782228782550855,-0.0012757380043364882,0.0013547422881861836,0.9999676739670397
1638480238.352786,1830,1638480238,351683723,world,-3.496326152432811,0.2081814744259888,0.4762274532481049,0.005913399654909673,-0.0007271746709246316,0.0005976977757268472,0.9999820726787498
1638480238.3629315,1831,1638480238,361667748,world,-3.4963934959363048,0.20782585670585083,0.47613039084451186,0.0023533261424646284,-0.0013330025672807174,0.004044560063512436,0.9999881631770027
1638480238.372995,1832,1638480238,371969071,world,-3.4965324594525202,0.20801427842411357,0.47621654178595735,0.004086011679257711,-0.0020704766562413403,0.0038918318230733604,0.9999819354768534
1638480238.383312,1833,1638480238,381484560,world,-3.4963951294998017,0.2080733422933928,0.47613383975299056,0.006434425557544612,-0.0013386993695569866,0.001403472202031663,0.9999774179037847
1638480238.3928955,1834,1638480238,392080715,world,-3.496366607175495,0.20806984383760957,0.4761553544195646,0.006800721759472739,-0.001289438173662597,0.001446110623224071,0.9999749978358519
1638480238.4030762,1835,1638480238,402077573,world,-3.4965283657934307,0.20793379830354178,0.476117324064594,0.004265962474656534,-0.0016300926768574998,0.003101400364625498,0.9999847627228169
1638480238.413079,1836,1638480238,412083488,world,-3.4962651607315287,0.20806694898408734,0.4762097343143401,0.006011318635440958,-0.000713008862601978,0.00110536140805298,0.9999810667421573
1638480238.4229813,1837,1638480238,422058489,world,-3.496492116924592,0.20792053987881043,0.4761388283183335,0.0024793494992908444,-0.0013103767448096853,0.0034277772340161675,0.999990192992952
1638480238.4330523,1838,1638480238,431656734,world,-3.4963941180894214,0.20820995301443565,0.47624494220741836,0.008586330150873149,-0.0014921250663374177,0.0014462548797037483,0.9999609776607035
1638480238.4426367,1839,1638480238,441585525,world,-3.4964410885127077,0.2082191612754973,0.4762034313878878,0.005841342923796279,-0.0016480033573351073,0.0016515765552128732,0.9999802173506551
1638480238.453427,1840,1638480238,451891744,world,-3.4964210750187927,0.20817166510806245,0.4762162305108499,0.005622699635299751,-0.0019834739007914565,0.0016272246001486235,0.9999809014277208
1638480238.4631653,1841,1638480238,461555977,world,-3.4964364328104995,0.2082067878421411,0.47622882861509264,0.00723057320747409,-0.0017029607154175018,0.0015434088576000626,0.999971217898291
1638480238.4729083,1842,1638480238,471498624,world,-3.4964867879761905,0.20790604275565044,0.4761481880560747,0.003238335506481658,-0.0014466503561781526,0.003541168781482932,0.9999874401759031
1638480238.4835117,1843,1638480238,481950291,world,-3.496462126226721,0.2082235638693423,0.4762065198996801,0.007311508617302248,-0.0017561604820421708,0.0016075699318394737,0.999970436293501
1638480238.4926918,1844,1638480238,491774373,world,-3.4965212381009048,0.20791700582506575,0.4761176643862124,0.005397273716971811,-0.0017838236723411686,0.0035866250648141037,0.9999774115099673
1638480238.5026987,1845,1638480238,501949801,world,-3.496413613304656,0.2081620329721957,0.4761791837272111,0.0047602221085503065,-0.0010524753078134644,0.0011079999392826904,0.999987502380574
1638480238.512813,1846,1638480238,512028392,world,-3.4963660036046096,0.2081384330257106,0.476136795019781,0.007771944404067845,-0.001937325098551799,0.002090104832347431,0.9999657369697386
1638480238.5228856,1847,1638480238,521693488,world,-3.4964336760904335,0.20818647593813783,0.476187152204383,0.007347593970691489,-0.0018477003739816255,0.001614797559187544,0.9999699951973624
1638480238.5328934,1848,1638480238,531778735,world,-3.4964332176717003,0.20819100056798318,0.4761943440053139,0.006336960894336587,-0.0015643230839023103,0.0016722469718687281,0.9999772994473314
1638480238.5426638,1849,1638480238,541619233,world,-3.4963829896186454,0.20809514482078675,0.47617228946537193,0.005880798440739495,-0.001210762993401046,0.0014635165688525996,0.9999809040086345
1638480238.5534046,1850,1638480238,551510390,world,-3.496427689497691,0.20817888781494526,0.476212042663934,0.006468021854221133,-0.0016433445849734672,0.001698085433694897,0.9999762900277828
1638480238.5632398,1851,1638480238,561515793,world,-3.496434546077183,0.2081267529900665,0.4761646941601162,0.005832702113092512,-0.0012583623587575782,0.0011667918644569263,0.9999815171826822
1638480238.573201,1852,1638480238,571855070,world,-3.496448299662582,0.2081990616399633,0.4761629768991833,0.006204072024345062,-0.0016490156993017768,0.0018041454932312114,0.9999777674011455
1638480238.5843034,1853,1638480238,581512102,world,-3.4963161558792835,0.20806305180788687,0.4762080833259992,0.0031576238625968026,-0.0009745475943880177,0.0017892168358166934,0.9999929391608938
1638480238.5935073,1854,1638480238,591518081,world,-3.496432763520514,0.20818081485800474,0.4761872938762388,0.007085420885023527,-0.0016403495084002877,0.0015772857375119112,0.9999723087336342
1638480238.6025913,1855,1638480238,601626306,world,-3.496437544772296,0.2081873864615117,0.47623177735532385,0.006262664627438241,-0.0016978926281165242,0.0015707362692583499,0.9999777142416525
1638480238.612809,1856,1638480238,611990288,world,-3.496250925809182,0.2079917345664523,0.4761146396054214,0.00536316460317325,-0.0010570231988453781,0.001847818966714332,0.9999833522276573
1638480238.6226985,1857,1638480238,621490864,world,-3.4965684639451426,0.20795656463810208,0.4761484169863541,0.004158763826092608,-0.0016648407517969681,0.0033390354442882314,0.9999843917936978
1638480238.6328695,1858,1638480238,632001094,world,-3.4963411625131124,0.20805391221115355,0.4760882253014067,0.003231151980447629,-0.00041744749319300406,0.0019303430705940225,0.9999928295593421
1638480238.6540084,1859,1638480238,651702379,world,-3.496433462584622,0.2081373228066815,0.4762061504830207,0.005387552521772241,-0.0012369311286969198,0.001205981556921761,0.9999839948157634
1638480238.6541214,1860,1638480238,651937880,world,-3.496482123478349,0.20813543455080885,0.4761687691480258,0.004705935977439396,-0.0010073047157282934,0.0010902938193188276,0.9999878253074753
1638480238.6633158,1861,1638480238,661491450,world,-3.4964584473288443,0.2082104877492006,0.4762530441263061,0.005635934218845138,-0.0017543287440114433,0.0016358936398840256,0.9999812410381196
1638480238.6732814,1862,1638480238,671659998,world,-3.4963200377824095,0.2080264318425226,0.47610654279211057,0.005248316443328996,-0.0012509969507537707,0.001628194002217816,0.9999841194566197
1638480238.6837795,1863,1638480238,681817345,world,-3.4965067891447057,0.20823088626226555,0.4763849328043348,0.0024888827733215257,-0.0014094507591958874,0.0014705747576086953,0.9999948281471162
1638480238.6929526,1864,1638480238,691510699,world,-3.496356785680251,0.20813127229929207,0.4761352797272528,0.008412895375673099,-0.001866057537008548,0.0018858094552751444,0.9999610916147513
1638480238.7031326,1865,1638480238,701513414,world,-3.4964001916949625,0.20811575685183495,0.47619081039146544,0.0068567766408385925,-0.001881359949581484,0.0019247772156759668,0.9999728697977299
1638480238.7134237,1866,1638480238,711689802,world,-3.496336268409908,0.20810374881191218,0.476159904603589,0.003816614374955354,-0.001019352197426481,0.0015250081971907095,0.999991034322713
1638480238.7226686,1867,1638480238,721872175,world,-3.4964337994346937,0.20820640403776478,0.47626532582934666,0.006685018634873376,-0.0017883505676502733,0.0016096459871519277,0.9999747603654278
1638480238.7332177,1868,1638480238,731600923,world,-3.4962191228862083,0.2080205595920874,0.4761458507106323,0.007039514403571051,-0.0005878722403974007,0.0013025125668840666,0.9999742012193135
1638480238.7427335,1869,1638480238,741558899,world,-3.4964381335614636,0.20818997318470944,0.47622587417373846,0.007200710577545341,-0.001845467459333319,0.0017323867045902844,0.9999708710024211
1638480238.75352,1870,1638480238,751676916,world,-3.496278214744242,0.20803992653492054,0.47620099522915804,0.005581368205775424,-0.0018653963719442448,0.0024913676554799164,0.9999795806477912
1638480238.7629821,1871,1638480238,761543720,world,-3.4963415745802595,0.20808911205001404,0.4761442347604378,0.0067474365252157,-0.001388813806494511,0.0013125750260765772,0.999975409919339
1638480238.7730627,1872,1638480238,771826098,world,-3.4965001959621915,0.20792201639461136,0.4761575345600727,0.0029842217621817322,-0.0015250020561264309,0.0036283853743075863,0.9999878017299905
