Time,header.seq,header.stamp.secs,header.stamp.nsecs,header.frame_id,twist.linear.x,twist.linear.y,twist.linear.z,twist.angular.x,twist.angular.y,twist.angular.z
1645055442.4610548,19601,1645055442,460090732,,0.0,0.0,0.0,0.0,0.0,-0.0
1645055442.510852,19602,1645055442,510008334,,0.0,0.0,0.0,0.0,0.0,-0.0
1645055442.5618575,19603,1645055442,560162639,,0.0,0.0,0.0,0.0,0.0,-0.0
1645055442.6120887,19604,1645055442,610534095,,0.0,0.0,0.0,0.0,0.0,-0.0
1645055442.6611257,19605,1645055442,660104628,,0.0,0.0,0.0,0.0,0.0,-0.0
1645055442.7111502,19606,1645055442,710102870,,0.0,0.0,0.0,0.0,0.0,-0.0
1645055442.7643547,19607,1645055442,761365711,,0.0,0.0,0.0,0.0,0.0,-0.0
1645055442.8138194,19608,1645055442,811533296,,0.0,0.0,0.0,0.0,0.0,-0.0
1645055442.8623097,19609,1645055442,860873399,,0.0,0.0,0.0,0.0,0.0,0.0
1645055442.9119363,19610,1645055442,910462332,,0.0,0.0,0.0,0.0,0.0,0.0
1645055442.961676,19611,1645055442,960561758,,0.0,0.0,0.0,0.0,0.0,0.0
1645055443.012706,19612,1645055443,11474521,,0.0,0.0,0.0,0.0,0.0,0.0
1645055443.0608675,19613,1645055443,60055494,,0.0,0.0,0.0,0.0,0.0,0.0
1645055443.1124802,19614,1645055443,111125826,,0.0,0.0,0.0,0.0,0.0,0.0
1645055443.1631134,19615,1645055443,161205604,,0.0,0.0,0.0,0.0,0.0,0.0
1645055443.2123857,19616,1645055443,211277799,,0.0,0.0,0.0,0.0,0.0,0.0
1645055443.262318,19617,1645055443,260483119,,0.0,0.0,0.0,0.0,0.0,0.0
1645055443.3139565,19618,1645055443,311760042,,0.0,0.0,0.0,0.0,0.0,0.0
1645055443.3627653,19619,1645055443,360599061,,0.0,0.0,0.0,0.0,0.0,0.0
1645055443.4142623,19620,1645055443,411180052,,0.0,0.0,0.0,0.0,0.0,0.0
1645055443.4631946,19621,1645055443,461361525,,0.0,0.0,0.0,0.0,0.0,0.0
1645055443.5146096,19622,1645055443,511265657,,0.0,0.0,0.0,0.0,0.0,0.0
1645055443.5618832,19623,1645055443,560379394,,0.0,0.0,0.0,0.0,0.0,0.0
1645055443.6111732,19624,1645055443,610116743,,0.0,0.0,0.0,0.0,0.0,0.0
1645055443.6623447,19625,1645055443,660394920,,0.0,0.0,0.0,0.0,0.0,0.0
1645055443.71418,19626,1645055443,711577411,,0.0,0.0,0.0,0.0,0.0,0.0
1645055443.7637124,19627,1645055443,762829437,,0.0,0.0,0.0,0.0,0.0,-0.0
1645055443.812068,19628,1645055443,810409073,,0.0,0.0,0.0,0.0,0.0,-0.0
1645055443.861525,19629,1645055443,860450228,,0.0,0.0,0.0,0.0,0.0,-0.0
1645055443.912846,19630,1645055443,910720821,,0.0,0.0,0.0,0.0,0.0,-0.0
1645055443.9611738,19631,1645055443,960254299,,0.28867459297180176,0.0,0.0,0.0,0.0,-0.08290581405162811
1645055444.0113015,19632,1645055444,10425341,,0.5886746048927307,0.0,0.0,0.0,0.0,-0.17379140853881836
1645055444.0651972,19633,1645055444,60978941,,0.7217017412185669,0.0,0.0,0.0,0.0,-0.21306432783603668
1645055444.1120355,19634,1645055444,110385413,,0.7217017412185669,0.0,0.0,0.0,0.0,-0.21306432783603668
1645055444.1617646,19635,1645055444,160236010,,0.7113864421844482,0.0,0.0,0.0,0.0,-0.261534184217453
1645055444.2149434,19636,1645055444,211490534,,0.7113864421844482,0.0,0.0,0.0,0.0,-0.261534184217453
1645055444.262963,19637,1645055444,261424170,,0.7319864630699158,0.0,0.0,0.0,0.0,-0.28683310747146606
1645055444.3114462,19638,1645055444,310375509,,0.7423017024993896,0.0,0.0,0.0,0.0,-0.2908751964569092
1645055444.3617282,19639,1645055444,360266906,,0.7629322409629822,0.0,0.0,0.0,0.0,-0.29280924797058105
1645055444.411314,19640,1645055444,410498332,,0.7629322409629822,0.0,0.0,0.0,0.0,-0.29280924797058105
1645055444.4623466,19641,1645055444,460355041,,0.7629322409629822,0.0,0.0,0.0,0.0,-0.29280924797058105
1645055444.5122619,19642,1645055444,510372229,,0.8041627407073975,0.0,0.0,0.0,0.0,-0.4659368693828583
1645055444.5649672,19643,1645055444,561347586,,0.8041627407073975,0.0,0.0,0.0,0.0,-0.4725660979747772
1645055444.6112583,19644,1645055444,610370349,,0.8144779801368713,0.0,0.0,0.0,0.0,-0.4786278307437897
1645055444.6623185,19645,1645055444,660231154,,0.8144779801368713,0.0,0.0,0.0,0.0,-0.5055326223373413
1645055444.714146,19646,1645055444,711213711,,0.8350780010223389,0.0,0.0,0.0,0.0,-0.5183186531066895
1645055444.7637594,19647,1645055444,761857646,,0.8763389587402344,0.0,0.0,0.0,0.0,-0.5439286828041077
1645055444.811675,19648,1645055444,810417948,,1.0,0.0,0.0,0.0,0.0,-0.620682954788208
1645055444.8618834,19649,1645055444,860277729,,1.0,0.0,0.0,0.0,0.0,-0.620682954788208
1645055444.9142683,19650,1645055444,911470365,,1.0,0.0,0.0,0.0,0.0,-0.620682954788208
1645055444.9626875,19651,1645055444,960354536,,1.0,0.0,0.0,0.0,0.0,-0.620682954788208
1645055445.013405,19652,1645055445,10444908,,1.0,0.0,0.0,0.0,0.0,-0.620682954788208
1645055445.06135,19653,1645055445,60226994,,1.0,0.0,0.0,0.0,0.0,-0.620682954788208
1645055445.1137779,19654,1645055445,111179024,,1.0,0.0,0.0,0.0,0.0,-0.620682954788208
1645055445.1616006,19655,1645055445,160483226,,1.0,0.0,0.0,0.0,0.0,-0.620682954788208
1645055445.211505,19656,1645055445,210538366,,1.0,0.0,0.0,0.0,0.0,-0.579406201839447
1645055445.263267,19657,1645055445,261385725,,1.0,0.0,0.0,0.0,0.0,-0.4974353313446045
1645055445.3126292,19658,1645055445,310249834,,1.0,0.0,0.0,0.0,0.0,-0.4974353313446045
1645055445.3623283,19659,1645055445,360350766,,1.0,0.0,0.0,0.0,0.0,-0.4485810399055481
1645055445.412968,19660,1645055445,410738640,,1.0,0.0,0.0,0.0,0.0,-0.39185574650764465
1645055445.464667,19661,1645055445,461105746,,1.0,0.0,0.0,0.0,0.0,-0.3112734258174896
1645055445.5129042,19662,1645055445,511462389,,1.0,0.0,0.0,0.0,0.0,-0.3032352030277252
1645055445.5629396,19663,1645055445,560225922,,1.0,0.0,0.0,0.0,0.0,-0.2952249050140381
1645055445.615571,19664,1645055445,611141152,,1.0,0.0,0.0,0.0,0.0,-0.2952249050140381
1645055445.662897,19665,1645055445,660364459,,1.0,0.0,0.0,0.0,0.0,-0.2952249050140381
1645055445.7120624,19666,1645055445,710441839,,1.0,0.0,0.0,0.0,0.0,-0.35150548815727234
1645055445.7636373,19667,1645055445,761106863,,1.0,0.0,0.0,0.0,0.0,-0.4080416262149811
1645055445.8140604,19668,1645055445,811687696,,1.0,0.0,0.0,0.0,0.0,-0.4080416262149811
1645055445.8633971,19669,1645055445,860831547,,1.0,0.0,0.0,0.0,0.0,-0.4080416262149811
1645055445.9115005,19670,1645055445,910271523,,1.0,0.0,0.0,0.0,0.0,-0.4080416262149811
1645055445.9611702,19671,1645055445,960317064,,1.0,0.0,0.0,0.0,0.0,-0.4080416262149811
1645055446.0123281,19672,1645055446,10466444,,1.0,0.0,0.0,0.0,0.0,-0.4080416262149811
1645055446.0630903,19673,1645055446,60314258,,1.0,0.0,0.0,0.0,0.0,-0.4080416262149811
1645055446.1113214,19674,1645055446,110474263,,1.0,0.0,0.0,0.0,0.0,-0.4080416262149811
1645055446.163968,19675,1645055446,160399741,,1.0,0.0,0.0,0.0,0.0,-0.4080416262149811
1645055446.2142298,19676,1645055446,211398972,,1.0,0.0,0.0,0.0,0.0,-0.4080416262149811
1645055446.263351,19677,1645055446,261185507,,1.0,0.0,0.0,0.0,0.0,-0.4080416262149811
1645055446.3117638,19678,1645055446,310371022,,1.0,0.0,0.0,0.0,0.0,-0.45671162009239197
1645055446.362233,19679,1645055446,360348340,,1.0,0.0,0.0,0.0,0.0,-0.45671162009239197
1645055446.413216,19680,1645055446,410495481,,1.0,0.0,0.0,0.0,0.0,-0.45671162009239197
1645055446.4623463,19681,1645055446,460346944,,1.0,0.0,0.0,0.0,0.0,-0.45671162009239197
1645055446.5123491,19682,1645055446,510323077,,1.0,0.0,0.0,0.0,0.0,-0.45671162009239197
1645055446.5613232,19683,1645055446,560337387,,1.0,0.0,0.0,0.0,0.0,-0.45671162009239197
1645055446.6108243,19684,1645055446,610117202,,1.0,0.0,0.0,0.0,0.0,-0.45671162009239197
1645055446.6634262,19685,1645055446,661127889,,1.0,0.0,0.0,0.0,0.0,-0.45671162009239197
1645055446.7145104,19686,1645055446,711784978,,1.0,0.0,0.0,0.0,0.0,-0.45671162009239197
1645055446.7613282,19687,1645055446,760323298,,1.0,0.0,0.0,0.0,0.0,-0.45671162009239197
1645055446.813715,19688,1645055446,810759044,,1.0,0.0,0.0,0.0,0.0,-0.45671162009239197
1645055446.8635948,19689,1645055446,862288224,,1.0,0.0,0.0,0.0,0.0,-0.4242495894432068
1645055446.911824,19690,1645055446,910486898,,1.0,0.0,0.0,0.0,0.0,-0.41614288091659546
1645055446.9638066,19691,1645055446,961169779,,1.0,0.0,0.0,0.0,0.0,-0.41614288091659546
1645055447.0117123,19692,1645055447,10477821,,1.0,0.0,0.0,0.0,0.0,-0.41614288091659546
1645055447.0639417,19693,1645055447,62038745,,1.0,0.0,0.0,0.0,0.0,-0.41614288091659546
1645055447.1138077,19694,1645055447,111436964,,1.0,0.0,0.0,0.0,0.0,-0.41614288091659546
1645055447.1612039,19695,1645055447,160450673,,1.0,0.0,0.0,0.0,0.0,-0.43233829736709595
1645055447.2164402,19696,1645055447,211214706,,1.0,0.0,0.0,0.0,0.0,-0.43233829736709595
1645055447.2640626,19697,1645055447,261635286,,1.0,0.0,0.0,0.0,0.0,-0.43233829736709595
1645055447.3121612,19698,1645055447,310330598,,1.0,0.0,0.0,0.0,0.0,-0.43233829736709595
1645055447.3643289,19699,1645055447,360661194,,1.0,0.0,0.0,0.0,0.0,-0.43233829736709595
1645055447.4135764,19700,1645055447,411301356,,1.0,0.0,0.0,0.0,0.0,-0.43233829736709595
1645055447.462165,19701,1645055447,460312793,,1.0,0.0,0.0,0.0,0.0,-0.43233829736709595
1645055447.51289,19702,1645055447,510717757,,1.0,0.0,0.0,0.0,0.0,-0.43233829736709595
1645055447.5627568,19703,1645055447,560503557,,1.0,0.0,0.0,0.0,0.0,-0.43233829736709595
1645055447.6110604,19704,1645055447,610129262,,1.0,0.0,0.0,0.0,0.0,-0.43233829736709595
1645055447.6609986,19705,1645055447,660291156,,1.0,0.0,0.0,0.0,0.0,-0.43233829736709595
1645055447.713404,19706,1645055447,710531545,,1.0,0.0,0.0,0.0,0.0,-0.4485810399055481
1645055447.7618327,19707,1645055447,760524703,,1.0,0.0,0.0,0.0,0.0,-0.4485810399055481
1645055447.8130717,19708,1645055447,810216904,,1.0,0.0,0.0,0.0,0.0,-0.4485810399055481
1645055447.8614283,19709,1645055447,860277358,,1.0,0.0,0.0,0.0,0.0,-0.2391144186258316
1645055447.9142385,19710,1645055447,911259886,,1.0,0.0,0.0,0.0,0.0,-0.2391144186258316
1645055447.9612381,19711,1645055447,960393467,,1.0,0.0,0.0,0.0,0.0,-0.2391144186258316
1645055448.0119765,19712,1645055448,10400449,,1.0,0.0,0.0,0.0,0.0,-0.5465338230133057
1645055448.0619812,19713,1645055448,60388681,,1.0,0.0,0.0,0.0,0.0,-0.5629667043685913
1645055448.1137104,19714,1645055448,110995660,,1.0,0.0,0.0,0.0,0.0,-0.5629667043685913
1645055448.1650896,19715,1645055448,162010924,,1.0,0.0,0.0,0.0,0.0,-0.5629667043685913
1645055448.214107,19716,1645055448,210935419,,1.0,0.0,0.0,0.0,0.0,-0.5629667043685913
1645055448.261091,19717,1645055448,260196680,,1.0,0.0,0.0,0.0,0.0,-0.5629667043685913
1645055448.314415,19718,1645055448,311761796,,1.0,0.0,0.0,0.0,0.0,-0.5629667043685913
1645055448.3618028,19719,1645055448,359987928,,1.0,0.0,0.0,0.0,0.0,-0.5629667043685913
1645055448.4139056,19720,1645055448,411457749,,1.0,0.0,0.0,0.0,0.0,-0.5629667043685913
1645055448.463794,19721,1645055448,461352862,,1.0,0.0,0.0,0.0,0.0,-0.5629667043685913
1645055448.510878,19722,1645055448,510146605,,1.0,0.0,0.0,0.0,0.0,-0.5629667043685913
1645055448.5620692,19723,1645055448,560263540,,1.0,0.0,0.0,0.0,0.0,-0.5629667043685913
1645055448.6130633,19724,1645055448,611233909,,1.0,0.0,0.0,0.0,0.0,-0.5629667043685913
1645055448.6608782,19725,1645055448,659995653,,1.0,0.0,0.0,0.0,0.0,-0.5629667043685913
1645055448.7129352,19726,1645055448,710447241,,1.0,0.0,0.0,0.0,0.0,-0.5629667043685913
1645055448.761603,19727,1645055448,760220114,,1.0,0.0,0.0,0.0,0.0,-0.5629667043685913
1645055448.8103456,19728,1645055448,809891484,,1.0,0.0,0.0,0.0,0.0,-0.5629667043685913
1645055448.8617125,19729,1645055448,860271360,,1.0,0.0,0.0,0.0,0.0,-0.5629667043685913
1645055448.9118214,19730,1645055448,910312296,,1.2999999523162842,0.0,0.0,0.0,0.0,-0.7318567037582397
1645055448.9632735,19731,1645055448,961368904,,1.5999999046325684,0.0,0.0,0.0,0.0,-0.9007466435432434
1645055449.011738,19732,1645055449,10685300,,1.8999998569488525,0.0,0.0,0.0,0.0,-1.0696367025375366
1645055449.0630734,19733,1645055449,60577181,,1.5999999046325684,0.0,0.0,0.0,0.0,-0.9007466435432434
1645055449.1130207,19734,1645055449,111899292,,1.2999999523162842,0.0,0.0,0.0,0.0,-0.7318567037582397
1645055449.1639118,19735,1645055449,162026884,,1.0,0.0,0.0,0.0,0.0,-0.5629667043685913
1645055449.2126179,19736,1645055449,210728565,,1.0,0.0,0.0,0.0,0.0,-0.5629667043685913
1645055449.264023,19737,1645055449,260350752,,1.0,0.0,0.0,0.0,0.0,-0.5629667043685913
1645055449.3127272,19738,1645055449,310530119,,1.0,0.0,0.0,0.0,0.0,-0.5629667043685913
1645055449.3619785,19739,1645055449,360339985,,1.0,0.0,0.0,0.0,0.0,-0.5629667043685913
1645055449.415523,19740,1645055449,411571184,,1.0,0.0,0.0,0.0,0.0,-0.5629667043685913
1645055449.4636087,19741,1645055449,460539872,,1.0,0.0,0.0,0.0,0.0,-0.5629667043685913
1645055449.5119898,19742,1645055449,510582664,,1.0,0.0,0.0,0.0,0.0,-0.5629667043685913
1645055449.5641186,19743,1645055449,560597552,,1.0,0.0,0.0,0.0,0.0,-0.5629667043685913
1645055449.6149654,19744,1645055449,613619268,,1.0,0.0,0.0,0.0,0.0,-0.5629667043685913
1645055449.6612263,19745,1645055449,660234275,,1.0,0.0,0.0,0.0,0.0,-0.5629667043685913
1645055449.7116215,19746,1645055449,710669544,,1.0,0.0,0.0,0.0,0.0,-0.5629667043685913
1645055449.763368,19747,1645055449,760794864,,1.0,0.0,0.0,0.0,0.0,-0.5629667043685913
1645055449.8117332,19748,1645055449,810349147,,1.0,0.0,0.0,0.0,0.0,-0.5629667043685913
1645055449.861909,19749,1645055449,860562178,,1.0,0.0,0.0,0.0,0.0,-0.5629667043685913
1645055449.913983,19750,1645055449,912228863,,1.0,0.0,0.0,0.0,0.0,-0.25513526797294617
1645055449.9630897,19751,1645055449,960295637,,1.0,0.0,0.0,0.0,0.0,0.17519837617874146
1645055450.0129416,19752,1645055450,10719322,,1.0,0.0,0.0,0.0,0.0,0.3838185966014862
1645055450.0610774,19753,1645055450,60219047,,1.0,0.0,0.0,0.0,0.0,0.6872178912162781
1645055450.1138203,19754,1645055450,110958443,,1.0,0.0,0.0,0.0,0.0,0.6872178912162781
1645055450.1628082,19755,1645055450,161407313,,1.0,0.0,0.0,0.0,0.0,0.7880923748016357
1645055450.2154236,19756,1645055450,211890455,,1.0,0.0,0.0,0.0,0.0,0.7880923748016357
1645055450.2634416,19757,1645055450,260284203,,1.0,0.0,0.0,0.0,0.0,0.7880923748016357
1645055450.314476,19758,1645055450,311432428,,1.0,0.0,0.0,0.0,0.0,0.7880923748016357
1645055450.361255,19759,1645055450,360307133,,1.2999999523162842,0.0,0.0,0.0,0.0,1.0245200395584106
1645055450.4116652,19760,1645055450,410320518,,1.5999999046325684,0.0,0.0,0.0,0.0,1.2609477043151855
1645055450.4618132,19761,1645055450,460430351,,1.8999998569488525,0.0,0.0,0.0,0.0,0.7292552590370178
1645055450.5155966,19762,1645055450,511254834,,2.1999998092651367,0.0,0.0,0.0,0.0,0.5789311528205872
1645055450.56252,19763,1645055450,560697247,,2.499999761581421,0.0,0.0,0.0,0.0,-0.9998644590377808
1645055450.6134045,19764,1645055450,611483779,,2.799999713897705,0.0,0.0,0.0,0.0,-1.1198482513427734
1645055450.6612132,19765,1645055450,660405396,,3.0,0.0,0.0,0.0,0.0,-1.862048864364624
1645055450.7117321,19766,1645055450,710413181,,3.0,0.0,0.0,0.0,0.0,-2.313549041748047
1645055450.7645774,19767,1645055450,762044763,,3.0,0.0,0.0,0.0,0.0,-2.3642771244049072
1645055450.8124166,19768,1645055450,810950123,,3.0,0.0,0.0,0.0,0.0,-2.3642771244049072
1645055450.8622243,19769,1645055450,860724726,,3.0,0.0,0.0,0.0,0.0,-2.3642771244049072
1645055450.9124742,19770,1645055450,910689408,,2.700000047683716,0.0,0.0,0.0,0.0,-2.1278493404388428
1645055450.9614265,19771,1645055450,960305067,,2.4000000953674316,0.0,0.0,0.0,0.0,-1.8914217948913574
1645055451.0140958,19772,1645055451,11533612,,2.1000001430511475,0.0,0.0,0.0,0.0,-1.6549941301345825
1645055451.062159,19773,1645055451,60208031,,1.8000001907348633,0.0,0.0,0.0,0.0,-1.4185664653778076
1645055451.1148458,19774,1645055451,111513312,,1.500000238418579,0.0,0.0,0.0,0.0,-1.1821388006210327
1645055451.1637855,19775,1645055451,161239276,,1.200000286102295,0.0,0.0,0.0,0.0,-0.945711076259613
1645055451.2113667,19776,1645055451,210473276,,0.900000274181366,0.0,0.0,0.0,0.0,-0.7092833518981934
1645055451.2627106,19777,1645055451,261366560,,0.600000262260437,0.0,0.0,0.0,0.0,-0.4728556275367737
1645055451.3119159,19778,1645055451,310199410,,0.30000025033950806,0.0,0.0,0.0,0.0,-0.236427903175354
1645055451.361179,19779,1645055451,360350011,,0.1752678006887436,0.0,0.0,0.0,0.0,-0.13812722265720367
1645055451.4149747,19780,1645055451,411089088,,0.47526782751083374,0.0,0.0,0.0,0.0,-0.37455496191978455
1645055451.4616995,19781,1645055451,460291567,,0.7752677798271179,0.0,0.0,0.0,0.0,-0.6109825968742371
1645055451.510642,19782,1645055451,510011643,,1.0,0.0,0.0,0.0,0.0,-0.7880923748016357
1645055451.5652926,19783,1645055451,561408252,,1.0,0.0,0.0,0.0,0.0,-0.7880923748016357
1645055451.6139698,19784,1645055451,611485381,,1.0,0.0,0.0,0.0,0.0,-0.7880923748016357
1645055451.6632304,19785,1645055451,661574223,,1.0,0.0,0.0,0.0,0.0,-0.7880923748016357
1645055451.7140245,19786,1645055451,711471129,,1.0,0.0,0.0,0.0,0.0,-0.7880923748016357
1645055451.7622814,19787,1645055451,760364939,,1.0,0.0,0.0,0.0,0.0,-0.7880923748016357
1645055451.8126628,19788,1645055451,810363093,,1.0,0.0,0.0,0.0,0.0,-0.7880923748016357
1645055451.8621187,19789,1645055451,860673181,,1.0,0.0,0.0,0.0,0.0,-0.7880923748016357
1645055451.9127874,19790,1645055451,911558081,,1.0,0.0,0.0,0.0,0.0,-0.7880923748016357
1645055451.961097,19791,1645055451,960295316,,1.2999999523162842,0.0,0.0,0.0,0.0,-1.0245200395584106
1645055452.0125546,19792,1645055452,10422429,,1.5999999046325684,0.0,0.0,0.0,0.0,-1.2609477043151855
1645055452.0638826,19793,1645055452,61304418,,1.8999998569488525,0.0,0.0,0.0,0.0,-1.4973753690719604
1645055452.1116128,19794,1645055452,110365203,,2.1999998092651367,0.0,0.0,0.0,0.0,-1.7338030338287354
1645055452.161722,19795,1645055452,160672636,,2.499999761581421,0.0,0.0,0.0,0.0,-1.9702306985855103
1645055452.2145486,19796,1645055452,211139396,,2.799999713897705,0.0,0.0,0.0,0.0,-2.206658363342285
1645055452.2604043,19797,1645055452,259811160,,3.0,0.0,0.0,0.0,0.0,-2.3642771244049072
1645055452.3140113,19798,1645055452,310930907,,3.0,0.0,0.0,0.0,0.0,-2.3389341831207275
1645055452.3635986,19799,1645055452,360913478,,3.0,0.0,0.0,0.0,0.0,-2.1116864681243896
1645055452.4141345,19800,1645055452,411216335,,3.0,0.0,0.0,0.0,0.0,-0.8615840673446655
1645055452.4646277,19801,1645055452,461122682,,3.0,0.0,0.0,0.0,0.0,-0.6933265924453735
1645055452.5149322,19802,1645055452,511484867,,3.0,0.0,0.0,0.0,0.0,-0.6933265924453735
1645055452.5617497,19803,1645055452,560280982,,3.0,0.0,0.0,0.0,0.0,-0.6933265924453735
1645055452.6122224,19804,1645055452,610438624,,3.0,0.0,0.0,0.0,0.0,-1.2241249084472656
1645055452.6650767,19805,1645055452,661812641,,3.0,0.0,0.0,0.0,0.0,-1.467818021774292
1645055452.7148564,19806,1645055452,711423695,,3.0,0.0,0.0,0.0,0.0,-1.9615591764450073
1645055452.7649922,19807,1645055452,761406874,,3.0,0.0,0.0,0.0,0.0,-2.3389341831207275
1645055452.811749,19808,1645055452,810382508,,3.0,0.0,0.0,0.0,0.0,-2.3642771244049072
1645055452.8649952,19809,1645055452,861242385,,3.0,0.0,0.0,0.0,0.0,-2.3642771244049072
1645055452.9130964,19810,1645055452,911260219,,3.0,0.0,0.0,0.0,0.0,-2.3642771244049072
1645055452.9636953,19811,1645055452,961738947,,3.0,0.0,0.0,0.0,0.0,-2.3642771244049072
1645055453.0124447,19812,1645055453,10366391,,3.0,0.0,0.0,0.0,0.0,-2.187180995941162
1645055453.061128,19813,1645055453,60204644,,3.0,0.0,0.0,0.0,0.0,-1.5413432121276855
1645055453.1157465,19814,1645055453,111226281,,3.0,0.0,0.0,0.0,0.0,-1.5413432121276855
1645055453.1624184,19815,1645055453,161704690,,3.0,0.0,0.0,0.0,0.0,-1.345743179321289
1645055453.2125018,19816,1645055453,210501862,,3.0,0.0,0.0,0.0,0.0,0.0
1645055453.2641106,19817,1645055453,260721104,,3.0,0.0,0.0,0.0,0.0,0.0
1645055453.3117428,19818,1645055453,310257823,,3.0,0.0,0.0,0.0,0.0,0.0
1645055453.3641756,19819,1645055453,362747930,,3.0,0.0,0.0,0.0,0.0,0.2864846885204315
1645055453.411777,19820,1645055453,410432469,,3.0,0.0,0.0,0.0,0.0,0.31038761138916016
1645055453.461593,19821,1645055453,460468993,,3.0,0.0,0.0,0.0,0.0,0.0
1645055453.5130844,19822,1645055453,510783050,,3.0,0.0,0.0,0.0,0.0,0.0
1645055453.5658426,19823,1645055453,562699817,,3.0,0.0,0.0,0.0,0.0,-0.33422356843948364
1645055453.6146727,19824,1645055453,611393534,,3.0,0.0,0.0,0.0,0.0,-0.33422356843948364
1645055453.6604865,19825,1645055453,659865844,,3.0,0.0,0.0,0.0,0.0,-1.8372178077697754
1645055453.712327,19826,1645055453,710528347,,3.0,0.0,0.0,0.0,0.0,-2.3642771244049072
1645055453.7641058,19827,1645055453,761688863,,3.0,0.0,0.0,0.0,0.0,-2.3642771244049072
1645055453.8145893,19828,1645055453,811530540,,3.0,0.0,0.0,0.0,0.0,-2.3642771244049072
1645055453.861917,19829,1645055453,860637630,,3.0,0.0,0.0,0.0,0.0,-2.3642771244049072
1645055453.9123514,19830,1645055453,910702025,,3.0,0.0,0.0,0.0,0.0,-2.3642771244049072
1645055453.9623404,19831,1645055453,960308791,,3.0,0.0,0.0,0.0,0.0,-2.3642771244049072
1645055454.0106964,19832,1645055454,9978022,,3.0,0.0,0.0,0.0,0.0,-2.3642771244049072
1645055454.0620844,19833,1645055454,60445423,,3.0,0.0,0.0,0.0,0.0,-2.3642771244049072
1645055454.112859,19834,1645055454,111203606,,3.0,0.0,0.0,0.0,0.0,-2.3642771244049072
1645055454.1631892,19835,1645055454,161880478,,3.0,0.0,0.0,0.0,0.0,-2.3642771244049072
1645055454.2118852,19836,1645055454,210412213,,3.0,0.0,0.0,0.0,0.0,-2.288196563720703
1645055454.2617745,19837,1645055454,260557313,,3.0,0.0,0.0,0.0,0.0,-2.288196563720703
1645055454.3137193,19838,1645055454,311680198,,3.0,0.0,0.0,0.0,0.0,-2.3389341831207275
1645055454.362784,19839,1645055454,361353012,,3.0,0.0,0.0,0.0,0.0,-2.3642771244049072
1645055454.4131525,19840,1645055454,410551079,,3.0,0.0,0.0,0.0,0.0,-2.3642771244049072
1645055454.46302,19841,1645055454,461206735,,3.0,0.0,0.0,0.0,0.0,-0.9820871353149414
1645055454.5136893,19842,1645055454,511619193,,3.0,0.0,0.0,0.0,0.0,-0.9820871353149414
1645055454.5611951,19843,1645055454,560267086,,3.0,0.0,0.0,0.0,0.0,-0.909705638885498
1645055454.613663,19844,1645055454,610669848,,2.700000047683716,0.0,0.0,0.0,0.0,-1.211168885231018
1645055454.6630483,19845,1645055454,661115778,,2.4000000953674316,0.0,0.0,0.0,0.0,-1.076594591140747
1645055454.711527,19846,1645055454,710450483,,2.1000001430511475,0.0,0.0,0.0,0.0,-0.9420202374458313
1645055454.7621794,19847,1645055454,760419392,,1.8000001907348633,0.0,0.0,0.0,0.0,-1.087491512298584
1645055454.813729,19848,1645055454,811561445,,1.500000238418579,0.0,0.0,0.0,0.0,-0.9062430262565613
1645055454.8667226,19849,1645055454,861322195,,1.200000286102295,0.0,0.0,0.0,0.0,-0.7647151947021484
1645055454.9138021,19850,1645055454,910225191,,1.0,0.0,0.0,0.0,0.0,-0.6372625231742859
1645055454.9645698,19851,1645055454,961118094,,1.0,0.0,0.0,0.0,0.0,-0.6372625231742859
1645055455.0133932,19852,1645055455,11556599,,1.0,0.0,0.0,0.0,0.0,-0.6372625231742859
1645055455.0622633,19853,1645055455,60760522,,1.0,0.0,0.0,0.0,0.0,-0.6372625231742859
1645055455.1129735,19854,1645055455,110910903,,1.0,0.0,0.0,0.0,0.0,-0.5465338230133057
1645055455.1643462,19855,1645055455,161269122,,1.0,0.0,0.0,0.0,0.0,-0.11937835067510605
1645055455.2133017,19856,1645055455,211497838,,1.0,0.0,0.0,0.0,0.0,-0.023854903876781464
1645055455.263717,19857,1645055455,261131454,,1.0,0.0,0.0,0.0,0.0,0.0
1645055455.312734,19858,1645055455,310490127,,1.0,0.0,0.0,0.0,0.0,0.0
1645055455.3653588,19859,1645055455,361701365,,1.0,0.0,0.0,0.0,0.0,0.0
1645055455.413826,19860,1645055455,411627363,,1.0,0.0,0.0,0.0,0.0,0.0
1645055455.46337,19861,1645055455,461288242,,1.0,0.0,0.0,0.0,0.0,0.0
1645055455.5116894,19862,1645055455,510397958,,1.0,0.0,0.0,0.0,0.0,0.0
1645055455.5646343,19863,1645055455,561117166,,1.0,0.0,0.0,0.0,0.0,-0.087505042552948
1645055455.6120768,19864,1645055455,610363873,,1.0,0.0,0.0,0.0,0.0,-0.09547141194343567
1645055455.6645315,19865,1645055455,661783301,,1.0,0.0,0.0,0.0,0.0,-0.09547141194343567
1645055455.7128859,19866,1645055455,711558420,,1.0,0.0,0.0,0.0,0.0,-0.09547141194343567
1645055455.762943,19867,1645055455,761307203,,1.0,0.0,0.0,0.0,0.0,-0.09547141194343567
1645055455.8132725,19868,1645055455,811190417,,1.0,0.0,0.0,0.0,0.0,-0.35150548815727234
1645055455.8630662,19869,1645055455,860588003,,1.0,0.0,0.0,0.0,0.0,-0.4648481607437134
1645055455.9112144,19870,1645055455,910075252,,1.0,0.0,0.0,0.0,0.0,-0.4648481607437134
1645055455.9622283,19871,1645055455,960196960,,1.0,0.0,0.0,0.0,0.0,-0.5301308035850525
1645055456.0146682,19872,1645055456,11190119,,1.0,0.0,0.0,0.0,0.0,-0.5301308035850525
1645055456.0611732,19873,1645055456,60367419,,1.0,0.0,0.0,0.0,0.0,-0.579406201839447
1645055456.111392,19874,1645055456,110371146,,1.2999999523162842,0.0,0.0,0.0,0.0,-0.7532280087471008
1645055456.1638033,19875,1645055456,161679631,,1.5999999046325684,0.0,0.0,0.0,0.0,-0.9270498752593994
1645055456.2117817,19876,1645055456,210472933,,1.8999998569488525,0.0,0.0,0.0,0.0,-1.1008716821670532
1645055456.2643178,19877,1645055456,261318990,,2.1999998092651367,0.0,0.0,0.0,0.0,-1.2928295135498047
1645055456.3143835,19878,1645055456,312737427,,2.499999761581421,0.0,0.0,0.0,0.0,-1.1417789459228516
1645055456.3623,19879,1645055456,360355281,,2.799999713897705,0.0,0.0,0.0,0.0,-1.0067965984344482
1645055456.4114897,19880,1645055456,410222272,,2.499999761581421,0.0,0.0,0.0,0.0,-0.1789984554052353
1645055456.4620667,19881,1645055456,460696172,,2.1999998092651367,0.0,0.0,0.0,0.0,0.0
1645055456.5132973,19882,1645055456,511600180,,1.8999998569488525,0.0,0.0,0.0,0.0,0.0
1645055456.562353,19883,1645055456,560129196,,1.5999999046325684,0.0,0.0,0.0,0.0,-0.025432322174310684
1645055456.6144133,19884,1645055456,611447921,,1.2999999523162842,0.0,0.0,0.0,0.0,-0.37335309386253357
1645055456.6615996,19885,1645055456,660347687,,1.0,0.0,0.0,0.0,0.0,-0.3837945759296417
1645055456.712631,19886,1645055456,711284911,,1.0,0.0,0.0,0.0,0.0,-0.39185574650764465
1645055456.7663028,19887,1645055456,761086079,,1.0,0.0,0.0,0.0,0.0,-0.39185574650764465
1645055456.811969,19888,1645055456,810656656,,1.0,0.0,0.0,0.0,0.0,-0.39185574650764465
1645055456.8609884,19889,1645055456,860056898,,1.0,0.0,0.0,0.0,0.0,-0.5056049227714539
1645055456.9123921,19890,1645055456,910934123,,1.0,0.0,0.0,0.0,0.0,-0.620682954788208
1645055456.9635794,19891,1645055456,960444828,,1.0,0.0,0.0,0.0,0.0,-0.620682954788208
1645055457.012896,19892,1645055457,11932257,,1.0,0.0,0.0,0.0,0.0,-0.620682954788208
1645055457.0636318,19893,1645055457,61090710,,1.0,0.0,0.0,0.0,0.0,-0.6538530588150024
1645055457.1134045,19894,1645055457,110592040,,1.0,0.0,0.0,0.0,0.0,-0.6621741652488708
1645055457.162806,19895,1645055457,160953557,,1.0,0.0,0.0,0.0,0.0,-0.762732207775116
1645055457.214198,19896,1645055457,211650271,,1.0,0.0,0.0,0.0,0.0,-0.7796447277069092
1645055457.2629685,19897,1645055457,261214898,,1.0,0.0,0.0,0.0,0.0,-0.7880923748016357
1645055457.3147566,19898,1645055457,311255072,,1.0,0.0,0.0,0.0,0.0,-0.7880923748016357
1645055457.3620403,19899,1645055457,360284470,,1.0,0.0,0.0,0.0,0.0,-0.7880923748016357
1645055457.4140875,19900,1645055457,411406718,,1.0,0.0,0.0,0.0,0.0,-0.7880923748016357
1645055457.4632976,19901,1645055457,460869521,,1.0,0.0,0.0,0.0,0.0,-0.7880923748016357
1645055457.5137527,19902,1645055457,511276541,,1.0,0.0,0.0,0.0,0.0,-0.7880923748016357
1645055457.5624957,19903,1645055457,560600433,,1.0,0.0,0.0,0.0,0.0,-0.7880923748016357
1645055457.6147244,19904,1645055457,610390625,,1.0,0.0,0.0,0.0,0.0,-0.7880923748016357
1645055457.6628883,19905,1645055457,661080716,,1.0,0.0,0.0,0.0,0.0,-0.7880923748016357
1645055457.7169614,19906,1645055457,711423993,,1.0,0.0,0.0,0.0,0.0,-0.7880923748016357
1645055457.763118,19907,1645055457,760639213,,1.0,0.0,0.0,0.0,0.0,-0.762732207775116
1645055457.812308,19908,1645055457,810611996,,1.0,0.0,0.0,0.0,0.0,-0.6538530588150024
1645055457.864802,19909,1645055457,861852003,,1.0,0.0,0.0,0.0,0.0,-0.6538530588150024
1645055457.9113786,19910,1645055457,910605563,,0.9794305562973022,0.0,0.0,0.0,0.0,-0.640403687953949
1645055457.9624681,19911,1645055457,960593354,,0.8969389200210571,0.0,0.0,0.0,0.0,-0.7068707346916199
1645055458.011456,19912,1645055458,10166812,,0.8557084798812866,0.0,0.0,0.0,0.0,-0.6743773221969604
1645055458.062949,19913,1645055458,60146668,,0.8453932404518127,0.0,0.0,0.0,0.0,-0.6662479639053345
1645055458.1115022,19914,1645055458,110559130,,0.8041627407073975,0.0,0.0,0.0,0.0,-0.633754551410675
1645055458.1620045,19915,1645055458,160329131,,0.7938475012779236,0.0,0.0,0.0,0.0,-0.6256251335144043
1645055458.2142193,19916,1645055458,211627762,,0.7938475012779236,0.0,0.0,0.0,0.0,-0.6256251335144043
1645055458.262209,19917,1645055458,260853064,,0.7938475012779236,0.0,0.0,0.0,0.0,-0.6256251335144043
1645055458.3129613,19918,1645055458,311234293,,0.7835322022438049,0.0,0.0,0.0,0.0,-0.6174957752227783
1645055458.3671057,19919,1645055458,361155654,,0.7938475012779236,0.0,0.0,0.0,0.0,-0.6256251335144043
1645055458.412349,19920,1645055458,410914327,,0.7938475012779236,0.0,0.0,0.0,0.0,-0.6256251335144043
1645055458.4641438,19921,1645055458,460393675,,0.7938475012779236,0.0,0.0,0.0,0.0,-0.6256251335144043
1645055458.514226,19922,1645055458,510459834,,0.7938475012779236,0.0,0.0,0.0,0.0,-0.6256251335144043
1645055458.5632305,19923,1645055458,560393867,,0.7938475012779236,0.0,0.0,0.0,0.0,-0.6256251335144043
1645055458.614998,19924,1645055458,611375860,,0.7938475012779236,0.0,0.0,0.0,0.0,-0.6256251335144043
1645055458.6630788,19925,1645055458,660392235,,1.093847393989563,0.0,0.0,0.0,0.0,-0.8620527982711792
1645055458.7148738,19926,1645055458,711454068,,1.3938473463058472,0.0,0.0,0.0,0.0,-1.098480463027954
1645055458.7623842,19927,1645055458,760744776,,1.693847417831421,0.0,0.0,0.0,0.0,-0.2022087126970291
1645055458.812654,19928,1645055458,810318619,,1.993847370147705,0.0,0.0,0.0,0.0,1.270653247833252
1645055458.8647804,19929,1645055458,860605961,,2.2938473224639893,0.0,0.0,0.0,0.0,1.8077635765075684
1645055458.9115875,19930,1645055458,910345019,,2.381542205810547,0.0,0.0,0.0,0.0,1.8768752813339233
1645055458.9613986,19931,1645055458,960156940,,2.381542205810547,0.0,0.0,0.0,0.0,1.8768752813339233
1645055459.0143425,19932,1645055459,11493428,,2.381542205810547,0.0,0.0,0.0,0.0,1.8768752813339233
1645055459.0637748,19933,1645055459,61784994,,2.4124882221221924,0.0,0.0,0.0,0.0,1.9012635946273804
1645055459.1120188,19934,1645055459,110464572,,2.381542205810547,0.0,0.0,0.0,0.0,1.8768752813339233
1645055459.1621041,19935,1645055459,160561932,,2.381542205810547,0.0,0.0,0.0,0.0,1.8768752813339233
1645055459.2136827,19936,1645055459,211243065,,2.381542205810547,0.0,0.0,0.0,0.0,1.8768752813339233
1645055459.2624981,19937,1645055459,260414991,,2.381542205810547,0.0,0.0,0.0,0.0,1.8768752813339233
1645055459.3114984,19938,1645055459,310523583,,2.381542205810547,0.0,0.0,0.0,0.0,-1.5374419689178467
1645055459.3660347,19939,1645055459,361256331,,2.381542205810547,0.0,0.0,0.0,0.0,-1.8768752813339233
1645055459.4146998,19940,1645055459,410665152,,2.3505966663360596,0.0,0.0,0.0,0.0,-1.852487325668335
1645055459.461352,19941,1645055459,460179348,,2.381542205810547,0.0,0.0,0.0,0.0,-1.8768752813339233
1645055459.5120327,19942,1645055459,510589826,,2.0815422534942627,0.0,0.0,0.0,0.0,-1.6404476165771484
1645055459.5637162,19943,1645055459,561759531,,1.7815423011779785,0.0,0.0,0.0,0.0,-1.4040199518203735
1645055459.6142843,19944,1645055459,612166393,,1.4815423488616943,0.0,0.0,0.0,0.0,-1.1675922870635986
1645055459.6637545,19945,1645055459,661311152,,1.1815423965454102,0.0,0.0,0.0,0.0,-0.931164562702179
1645055459.7179592,19946,1645055459,711405696,,0.8815423846244812,0.0,0.0,0.0,0.0,-0.6947368383407593
1645055459.7649157,19947,1645055459,760694198,,0.7938475012779236,0.0,0.0,0.0,0.0,-0.6256251335144043
1645055459.8118675,19948,1645055459,810849125,,0.7938475012779236,0.0,0.0,0.0,0.0,-0.6256251335144043
1645055459.8620496,19949,1645055459,860836758,,0.7835322022438049,0.0,0.0,0.0,0.0,-0.6174957752227783
1645055459.9130704,19950,1645055459,910742728,,0.7938475012779236,0.0,0.0,0.0,0.0,-0.6256251335144043
1645055459.9637847,19951,1645055459,961774258,,0.7938475012779236,0.0,0.0,0.0,0.0,-0.6256251335144043
1645055460.0123265,19952,1645055460,10883305,,0.7938475012779236,0.0,0.0,0.0,0.0,-0.6256251335144043
1645055460.063612,19953,1645055460,61819284,,1.093847393989563,0.0,0.0,0.0,0.0,-0.8620527982711792
1645055460.1116061,19954,1645055460,110356976,,1.3938473463058472,0.0,0.0,0.0,0.0,-1.098480463027954
1645055460.1629593,19955,1645055460,160626399,,1.693847417831421,0.0,0.0,0.0,0.0,-1.3349082469940186
1645055460.2142398,19956,1645055460,211394700,,1.993847370147705,0.0,0.0,0.0,0.0,-1.5713359117507935
1645055460.2630553,19957,1645055460,260588515,,2.2887966632843018,0.0,0.0,0.0,0.0,-1.8037831783294678
1645055460.3120522,19958,1645055460,310215415,,2.2578508853912354,0.0,0.0,0.0,0.0,-1.7793951034545898
1645055460.3637843,19959,1645055460,361205890,,2.2887966632843018,0.0,0.0,0.0,0.0,-1.8037831783294678
1645055460.4150026,19960,1645055460,411554674,,2.2887966632843018,0.0,0.0,0.0,0.0,-1.8037831783294678
1645055460.4626677,19961,1645055460,460424619,,2.2887966632843018,0.0,0.0,0.0,0.0,-1.8037831783294678
1645055460.513963,19962,1645055460,511388342,,1.988796591758728,0.0,0.0,0.0,0.0,-1.5673553943634033
1645055460.562354,19963,1645055460,560255343,,1.6887966394424438,0.0,0.0,0.0,0.0,-1.3309277296066284
1645055460.611385,19964,1645055460,610437792,,1.3887968063354492,0.0,0.0,0.0,0.0,-1.094500184059143
1645055460.6620002,19965,1645055460,660542225,,1.088796854019165,0.0,0.0,0.0,0.0,-0.8580725193023682
1645055460.7139409,19966,1645055460,711161086,,0.7887969017028809,0.0,0.0,0.0,0.0,-0.6216447949409485
1645055460.763258,19967,1645055460,760157207,,0.7629322409629822,0.0,0.0,0.0,0.0,-0.6012610793113708
1645055460.8127313,19968,1645055460,810867460,,0.7629322409629822,0.0,0.0,0.0,0.0,-0.6012610793113708
1645055460.862587,19969,1645055460,860665367,,0.7629322409629822,0.0,0.0,0.0,0.0,-0.6012610793113708
1645055460.913793,19970,1645055460,910461930,,0.7526169419288635,0.0,0.0,0.0,0.0,-0.5931316614151001
1645055460.9610627,19971,1645055460,960351356,,0.7526169419288635,0.0,0.0,0.0,0.0,-0.5931316614151001
1645055461.0139482,19972,1645055461,11076265,,1.0526169538497925,0.0,0.0,0.0,0.0,-0.8295593857765198
1645055461.0638177,19973,1645055461,61978486,,1.3526169061660767,0.0,0.0,0.0,0.0,-1.0659871101379395
1645055461.1119096,19974,1645055461,110345523,,1.6526168584823608,0.0,0.0,0.0,0.0,-1.3024147748947144
1645055461.164043,19975,1645055461,161992155,,1.952616810798645,0.0,0.0,0.0,0.0,-1.5388424396514893
1645055461.212328,19976,1645055461,210303224,,2.2526168823242188,0.0,0.0,0.0,0.0,-1.7752702236175537
1645055461.2616904,19977,1645055461,260332235,,2.2578508853912354,0.0,0.0,0.0,0.0,-1.7793951034545898
1645055461.3131723,19978,1645055461,310539516,,2.2887966632843018,0.0,0.0,0.0,0.0,-1.8037831783294678
1645055461.3627977,19979,1645055461,360361776,,2.2887966632843018,0.0,0.0,0.0,0.0,-1.8037831783294678
1645055461.4148097,19980,1645055461,411516378,,2.2887966632843018,0.0,0.0,0.0,0.0,-1.8037831783294678
1645055461.4637706,19981,1645055461,460158806,,2.2578508853912354,0.0,0.0,0.0,0.0,-1.7793951034545898
1645055461.5151591,19982,1645055461,511347489,,2.2887966632843018,0.0,0.0,0.0,0.0,-1.8037831783294678
1645055461.5623782,19983,1645055461,560672536,,2.2887966632843018,0.0,0.0,0.0,0.0,-1.8037831783294678
1645055461.6137652,19984,1645055461,611513444,,2.2887966632843018,0.0,0.0,0.0,0.0,-1.8037831783294678
1645055461.6628056,19985,1645055461,660997242,,2.2578508853912354,0.0,0.0,0.0,0.0,-1.7793951034545898
1645055461.7147593,19986,1645055461,711412394,,2.2578508853912354,0.0,0.0,0.0,0.0,-1.7793951034545898
1645055461.76198,19987,1645055461,760301348,,2.2578508853912354,0.0,0.0,0.0,0.0,-1.104704737663269
1645055461.8118577,19988,1645055461,810366198,,2.2887966632843018,0.0,0.0,0.0,0.0,1.5920333862304688
1645055461.862208,19989,1645055461,861279875,,2.2887966632843018,0.0,0.0,0.0,0.0,1.8037831783294678
1645055461.913389,19990,1645055461,911115414,,2.2887966632843018,0.0,0.0,0.0,0.0,1.8037831783294678
1645055461.9633477,19991,1645055461,961735141,,2.2887966632843018,0.0,0.0,0.0,0.0,1.8037831783294678
1645055462.014793,19992,1645055462,11139547,,2.2887966632843018,0.0,0.0,0.0,0.0,0.9339792728424072
1645055462.0635638,19993,1645055462,60798033,,2.2887966632843018,0.0,0.0,0.0,0.0,0.989589273929596
1645055462.1136637,19994,1645055462,110663237,,2.2887966632843018,0.0,0.0,0.0,0.0,1.5920333862304688
1645055462.161261,19995,1645055462,160438010,,2.2578508853912354,0.0,0.0,0.0,0.0,1.6082637310028076
1645055462.213679,19996,1645055462,211399943,,2.2578508853912354,0.0,0.0,0.0,0.0,1.6082637310028076
1645055462.2642775,19997,1645055462,260273602,,2.2887966632843018,0.0,0.0,0.0,0.0,0.547338604927063
1645055462.311883,19998,1645055462,310413236,,2.2887966632843018,0.0,0.0,0.0,0.0,-1.8037831783294678
1645055462.3638048,19999,1645055462,361195202,,2.2887966632843018,0.0,0.0,0.0,0.0,-1.8037831783294678
1645055462.4142506,20000,1645055462,411848081,,2.2887966632843018,0.0,0.0,0.0,0.0,-1.8037831783294678
1645055462.462289,20001,1645055462,460232495,,2.2887966632843018,0.0,0.0,0.0,0.0,-1.8037831783294678
1645055462.514846,20002,1645055462,512213494,,2.2887966632843018,0.0,0.0,0.0,0.0,-1.8037831783294678
1645055462.5635157,20003,1645055462,561365166,,2.2887966632843018,0.0,0.0,0.0,0.0,-1.8037831783294678
1645055462.6122098,20004,1645055462,610521607,,2.2887966632843018,0.0,0.0,0.0,0.0,-1.8037831783294678
1645055462.664467,20005,1645055462,661234230,,2.2578508853912354,0.0,0.0,0.0,0.0,-1.7793951034545898
1645055462.7154965,20006,1645055462,711093962,,2.2887966632843018,0.0,0.0,0.0,0.0,-1.8037831783294678
1645055462.761077,20007,1645055462,760171780,,2.2887966632843018,0.0,0.0,0.0,0.0,-1.8037831783294678
1645055462.8146927,20008,1645055462,811045009,,2.2887966632843018,0.0,0.0,0.0,0.0,-1.8037831783294678
1645055462.8639712,20009,1645055462,861832383,,2.2578508853912354,0.0,0.0,0.0,0.0,-1.7793951034545898
1645055462.9124746,20010,1645055462,910389724,,2.2578508853912354,0.0,0.0,0.0,0.0,-1.7793951034545898
1645055462.9630556,20011,1645055462,960612686,,2.2887966632843018,0.0,0.0,0.0,0.0,-1.5728455781936646
1645055463.0140128,20012,1645055463,11582907,,2.2887966632843018,0.0,0.0,0.0,0.0,-1.5728455781936646
1645055463.0618103,20013,1645055463,60404311,,2.2887966632843018,0.0,0.0,0.0,0.0,-1.8037831783294678
1645055463.1142607,20014,1645055463,110348076,,2.2578508853912354,0.0,0.0,0.0,0.0,-1.7793951034545898
1645055463.1639056,20015,1645055463,160792157,,2.2887966632843018,0.0,0.0,0.0,0.0,-1.8037831783294678
1645055463.2136736,20016,1645055463,211517580,,2.2887966632843018,0.0,0.0,0.0,0.0,-1.8037831783294678
1645055463.262282,20017,1645055463,260979876,,2.2887966632843018,0.0,0.0,0.0,0.0,-1.8037831783294678
1645055463.311802,20018,1645055463,310493116,,2.2887966632843018,0.0,0.0,0.0,0.0,0.0
1645055463.3620048,20019,1645055463,360546639,,2.2887966632843018,0.0,0.0,0.0,0.0,1.42067289352417
1645055463.4117622,20020,1645055463,410839426,,2.2578508853912354,0.0,0.0,0.0,0.0,1.4951462745666504
1645055463.464497,20021,1645055463,460928213,,2.2578508853912354,0.0,0.0,0.0,0.0,1.7221919298171997
1645055463.5127995,20022,1645055463,510405197,,2.2887966632843018,0.0,0.0,0.0,0.0,1.8037831783294678
1645055463.5662806,20023,1645055463,561656281,,2.2887966632843018,0.0,0.0,0.0,0.0,1.8037831783294678
1645055463.612815,20024,1645055463,610658771,,2.2887966632843018,0.0,0.0,0.0,0.0,1.8037831783294678
1645055463.664786,20025,1645055463,660293994,,2.2887966632843018,0.0,0.0,0.0,0.0,1.42067289352417
1645055463.7113378,20026,1645055463,710452221,,2.2887966632843018,0.0,0.0,0.0,0.0,0.8969327211380005
1645055463.7611392,20027,1645055463,760117140,,2.2887966632843018,0.0,0.0,0.0,0.0,-1.8037831783294678
1645055463.8133247,20028,1645055463,811121025,,2.2887966632843018,0.0,0.0,0.0,0.0,-1.8037831783294678
1645055463.8624768,20029,1645055463,860362522,,2.2887966632843018,0.0,0.0,0.0,0.0,-1.8037831783294678
1645055463.9106185,20030,1645055463,909990193,,2.2887966632843018,0.0,0.0,0.0,0.0,-1.8037831783294678
1645055463.9623635,20031,1645055463,960427586,,2.2887966632843018,0.0,0.0,0.0,0.0,-1.8037831783294678
1645055464.012066,20032,1645055464,10619221,,2.2887966632843018,0.0,0.0,0.0,0.0,-1.8037831783294678
1645055464.0636368,20033,1645055464,61543076,,2.2578508853912354,0.0,0.0,0.0,0.0,-1.7793951034545898
1645055464.1141453,20034,1645055464,111131324,,2.2887966632843018,0.0,0.0,0.0,0.0,-1.8037831783294678
1645055464.1617742,20035,1645055464,160371510,,2.2887966632843018,0.0,0.0,0.0,0.0,-1.8037831783294678
1645055464.2131283,20036,1645055464,211106278,,2.2887966632843018,0.0,0.0,0.0,0.0,-1.8037831783294678
1645055464.2643871,20037,1645055464,261167834,,2.2887966632843018,0.0,0.0,0.0,0.0,-1.8037831783294678
1645055464.3136148,20038,1645055464,311877547,,2.2887966632843018,0.0,0.0,0.0,0.0,-0.7124415636062622
1645055464.3641813,20039,1645055464,361375171,,2.2887966632843018,0.0,0.0,0.0,0.0,0.0
1645055464.411395,20040,1645055464,410328927,,2.2887966632843018,0.0,0.0,0.0,0.0,0.0
1645055464.46291,20041,1645055464,461008016,,2.2887966632843018,0.0,0.0,0.0,0.0,0.3462425470352173
1645055464.5124528,20042,1645055464,510380745,,2.2578508853912354,0.0,0.0,0.0,0.0,0.32354915142059326
1645055464.5636075,20043,1645055464,561803828,,2.2887966632843018,0.0,0.0,0.0,0.0,-0.25498995184898376
1645055464.6128767,20044,1645055464,610169940,,2.2887966632843018,0.0,0.0,0.0,0.0,-0.41921788454055786
1645055464.6631613,20045,1645055464,661204194,,2.2887966632843018,0.0,0.0,0.0,0.0,-1.8037831783294678
1645055464.7147973,20046,1645055464,711582293,,2.2887966632843018,0.0,0.0,0.0,0.0,-1.8037831783294678
1645055464.762464,20047,1645055464,760339570,,2.2578508853912354,0.0,0.0,0.0,0.0,-1.7793951034545898
1645055464.8143458,20048,1645055464,810443046,,1.9578509330749512,0.0,0.0,0.0,0.0,-1.542967438697815
1645055464.8651295,20049,1645055464,860301020,,2.2578508853912354,0.0,0.0,0.0,0.0,-1.7793951034545898
1645055464.9140756,20050,1645055464,911383978,,2.2887966632843018,0.0,0.0,0.0,0.0,-1.8037831783294678
1645055464.9622576,20051,1645055464,961231008,,1.988796591758728,0.0,0.0,0.0,0.0,-1.5673553943634033
1645055465.0152433,20052,1645055465,11624882,,1.6887966394424438,0.0,0.0,0.0,0.0,-1.3309277296066284
1645055465.0610085,20053,1645055465,60048467,,1.3887968063354492,0.0,0.0,0.0,0.0,-1.094500184059143
1645055465.1128867,20054,1645055465,110885923,,1.088796854019165,0.0,0.0,0.0,0.0,-0.8580725193023682
1645055465.163411,20055,1645055465,161341782,,0.7887969017028809,0.0,0.0,0.0,0.0,-0.6216447949409485
1645055465.2112625,20056,1645055465,210249491,,0.7629322409629822,0.0,0.0,0.0,0.0,-0.6012610793113708
1645055465.2624555,20057,1645055465,261009796,,0.7629322409629822,0.0,0.0,0.0,0.0,-0.6012610793113708
1645055465.3113663,20058,1645055465,310379550,,0.7526169419288635,0.0,0.0,0.0,0.0,-0.5931316614151001
1645055465.365785,20059,1645055465,362010313,,0.7526169419288635,0.0,0.0,0.0,0.0,-0.5931316614151001
1645055465.4117012,20060,1645055465,410749543,,0.7629322409629822,0.0,0.0,0.0,0.0,-0.6012610793113708
1645055465.4620042,20061,1645055465,460822140,,0.7629322409629822,0.0,0.0,0.0,0.0,-0.6012610793113708
1645055465.5131636,20062,1645055465,511170128,,0.7629322409629822,0.0,0.0,0.0,0.0,-0.6012610793113708
1645055465.5630941,20063,1645055465,561061926,,0.7526169419288635,0.0,0.0,0.0,0.0,-0.5931316614151001
1645055465.6146045,20064,1645055465,611157595,,0.7629322409629822,0.0,0.0,0.0,0.0,-0.6012610793113708
1645055465.664037,20065,1645055465,660373622,,0.7629322409629822,0.0,0.0,0.0,0.0,-0.6012610793113708
1645055465.7120938,20066,1645055465,710671978,,0.7629322409629822,0.0,0.0,0.0,0.0,-0.6012610793113708
1645055465.7623081,20067,1645055465,760766271,,0.7526169419288635,0.0,0.0,0.0,0.0,-0.5931316614151001
1645055465.812904,20068,1645055465,810284600,,0.7526169419288635,0.0,0.0,0.0,0.0,-0.5931316614151001
1645055465.8627331,20069,1645055465,860318254,,0.7526169419288635,0.0,0.0,0.0,0.0,-0.5931316614151001
1645055465.9120533,20070,1645055465,911025407,,0.7629322409629822,0.0,0.0,0.0,0.0,-0.6012610793113708
1645055465.9635952,20071,1645055465,960342457,,0.7526169419288635,0.0,0.0,0.0,0.0,-0.5931316614151001
1645055466.013102,20072,1645055466,11145706,,0.7629322409629822,0.0,0.0,0.0,0.0,-0.6012610793113708
1645055466.0626314,20073,1645055466,60538885,,0.7629322409629822,0.0,0.0,0.0,0.0,-0.6012610793113708
1645055466.1148734,20074,1645055466,112015890,,0.7526169419288635,0.0,0.0,0.0,0.0,-0.5931316614151001
1645055466.1619775,20075,1645055466,160262740,,0.7526169419288635,0.0,0.0,0.0,0.0,-0.5931316614151001
1645055466.2133224,20076,1645055466,211307011,,0.7629322409629822,0.0,0.0,0.0,0.0,-0.6012610793113708
1645055466.2640803,20077,1645055466,260960700,,0.7732475399971008,0.0,0.0,0.0,0.0,-0.6093904972076416
1645055466.3140924,20078,1645055466,311593391,,0.7732475399971008,0.0,0.0,0.0,0.0,-0.6093904972076416
1645055466.3658633,20079,1645055466,361820580,,0.7732475399971008,0.0,0.0,0.0,0.0,-0.5378338694572449
1645055466.4145906,20080,1645055466,411645052,,0.7732475399971008,0.0,0.0,0.0,0.0,-0.5055902600288391
1645055466.4639053,20081,1645055466,461140534,,0.7732475399971008,0.0,0.0,0.0,0.0,-0.5055902600288391
1645055466.5125837,20082,1645055466,510397457,,0.7835322022438049,0.0,0.0,0.0,0.0,-0.5123149156570435
1645055466.5667112,20083,1645055466,561179651,,0.7835322022438049,0.0,0.0,0.0,0.0,-0.5123149156570435
1645055466.6124423,20084,1645055466,611277561,,0.7732475399971008,0.0,0.0,0.0,0.0,-0.5055902600288391
1645055466.663387,20085,1645055466,660710579,,0.7835322022438049,0.0,0.0,0.0,0.0,-0.42822685837745667
1645055466.716572,20086,1645055466,712104864,,0.7835322022438049,0.0,0.0,0.0,0.0,-0.42822685837745667
1645055466.7631927,20087,1645055466,761842041,,0.7732475399971008,0.0,0.0,0.0,0.0,-0.061522308737039566
1645055466.8110182,20088,1645055466,810036315,,0.7732475399971008,0.0,0.0,0.0,0.0,0.01230907253921032
1645055466.8639157,20089,1645055466,861193930,,0.7732475399971008,0.0,0.0,0.0,0.0,0.01230907253921032
1645055466.911255,20090,1645055466,910362790,,0.7732475399971008,0.0,0.0,0.0,0.0,0.1973009705543518
1645055466.9634006,20091,1645055466,960422077,,0.7835322022438049,0.0,0.0,0.0,0.0,0.3007342219352722
1645055467.0138564,20092,1645055467,10922160,,1.0835322141647339,0.0,0.0,0.0,0.0,0.4158798158168793
1645055467.0621033,20093,1645055467,60570858,,1.383532166481018,0.0,0.0,0.0,0.0,0.5310253500938416
1645055467.1119626,20094,1645055467,110591137,,1.6835322380065918,0.0,0.0,0.0,0.0,0.646170973777771
1645055467.163999,20095,1645055467,161231348,,1.983532190322876,0.0,0.0,0.0,0.0,0.7613165378570557
1645055467.2164147,20096,1645055467,212977632,,2.28353214263916,0.0,0.0,0.0,0.0,0.8948696255683899
1645055467.2619019,20097,1645055467,260317737,,1.983532190322876,0.0,0.0,0.0,0.0,0.3791978359222412
1645055467.3122652,20098,1645055467,310540319,,1.6835322380065918,0.0,0.0,0.0,0.0,-0.1473175585269928
1645055467.363022,20099,1645055467,361420177,,1.3835322856903076,0.0,0.0,0.0,0.0,-0.7108327150344849
1645055467.415132,20100,1645055467,411113930,,1.0835323333740234,0.0,0.0,0.0,0.0,-0.5566983819007874
1645055467.462122,20101,1645055467,460386535,,0.7835323214530945,0.0,0.0,0.0,0.0,-0.4733803868293762
1645055467.5146866,20102,1645055467,511190585,,0.7835322022438049,0.0,0.0,0.0,0.0,-0.4928170442581177
1645055467.5649357,20103,1645055467,561922955,,0.7732475399971008,0.0,0.0,0.0,0.0,-0.48634833097457886
1645055467.6159036,20104,1645055467,610725515,,0.7835322022438049,0.0,0.0,0.0,0.0,-0.4928170442581177
1645055467.6614265,20105,1645055467,660235397,,0.7732475399971008,0.0,0.0,0.0,0.0,-0.5055902600288391
1645055467.71069,20106,1645055467,710027134,,0.7835322022438049,0.0,0.0,0.0,0.0,-0.5123149156570435
1645055467.7612598,20107,1645055467,760246772,,0.7835322022438049,0.0,0.0,0.0,0.0,-0.5123149156570435
1645055467.8132312,20108,1645055467,811679522,,0.7835322022438049,0.0,0.0,0.0,0.0,-0.5123149156570435
1645055467.864114,20109,1645055467,860646976,,1.0835322141647339,0.0,0.0,0.0,0.0,-0.6994912028312683
1645055467.9140747,20110,1645055467,911187380,,1.383532166481018,0.0,0.0,0.0,0.0,-0.767509400844574
1645055467.9641867,20111,1645055467,962667906,,1.6835322380065918,0.0,0.0,0.0,0.0,-0.22778275609016418
1645055468.0115836,20112,1645055468,10379049,,1.983532190322876,0.0,0.0,0.0,0.0,0.0
1645055468.062436,20113,1645055468,60348001,,1.6835322380065918,0.0,0.0,0.0,0.0,0.5240787863731384
1645055468.1156619,20114,1645055468,111019893,,1.383532166481018,0.0,0.0,0.0,0.0,0.5086749792098999
1645055468.1619356,20115,1645055468,160363729,,1.0835322141647339,0.0,0.0,0.0,0.0,0.39837580919265747
1645055468.213012,20116,1645055468,210931270,,0.7835322022438049,0.0,0.0,0.0,0.0,0.24391134083271027
1645055468.262036,20117,1645055468,261021758,,0.7732475399971008,0.0,0.0,0.0,0.0,0.13547171652317047
1645055468.3112648,20118,1645055468,310246619,,0.7732475399971008,0.0,0.0,0.0,0.0,0.13547171652317047
1645055468.3639784,20119,1645055468,360397746,,0.7732475399971008,0.0,0.0,0.0,0.0,0.07384119182825089
1645055468.4153385,20120,1645055468,412060160,,0.7835322022438049,0.0,0.0,0.0,0.0,0.02494640462100506
1645055468.4625943,20121,1645055468,460493090,,0.7835322022438049,0.0,0.0,0.0,0.0,0.0
1645055468.5129197,20122,1645055468,510706681,,0.7938475012779236,0.0,0.0,0.0,0.0,0.0
1645055468.5617552,20123,1645055468,560338196,,0.7938475012779236,0.0,0.0,0.0,0.0,0.0
1645055468.6144629,20124,1645055468,611659075,,0.8041627407073975,0.0,0.0,0.0,0.0,0.0
1645055468.6628525,20125,1645055468,660408068,,0.8041627407073975,0.0,0.0,0.0,0.0,0.0
1645055468.7152457,20126,1645055468,711067512,,0.8041627407073975,0.0,0.0,0.0,0.0,0.0
1645055468.7626307,20127,1645055468,760309781,,0.8144779801368713,0.0,0.0,0.0,0.0,0.0
1645055468.814458,20128,1645055468,811767716,,0.8247932195663452,0.0,0.0,0.0,0.0,0.07876354455947876
1645055468.8639812,20129,1645055468,861753084,,0.8350780010223389,0.0,0.0,0.0,0.0,0.21975122392177582
1645055468.9133182,20130,1645055468,911679157,,0.8350780010223389,0.0,0.0,0.0,0.0,0.21975122392177582
1645055468.9645412,20131,1645055468,960545652,,0.8453932404518127,0.0,0.0,0.0,0.0,0.2360270768404007
1645055469.01332,20132,1645055469,10913706,,0.8453932404518127,0.0,0.0,0.0,0.0,0.22246569395065308
1645055469.0625825,20133,1645055469,60648933,,1.1453932523727417,0.0,0.0,0.0,0.0,0.10937920957803726
1645055469.1119893,20134,1645055469,110338720,,1.4453932046890259,0.0,0.0,0.0,0.0,0.13802766799926758
1645055469.1619332,20135,1645055469,160355961,,1.74539315700531,0.0,0.0,0.0,0.0,0.0
1645055469.2105978,20136,1645055469,209987572,,2.045393228530884,0.0,0.0,0.0,0.0,0.0
1645055469.2611153,20137,1645055469,260140813,,2.345393180847168,0.0,0.0,0.0,0.0,-0.29868683218955994
1645055469.3122633,20138,1645055469,311185407,,2.536179780960083,0.0,0.0,0.0,0.0,-0.32298359274864197
1645055469.36068,20139,1645055469,360005216,,2.236179828643799,0.0,0.0,0.0,0.0,-1.3879586458206177
1645055469.4139698,20140,1645055469,411233265,,1.9361798763275146,0.0,0.0,0.0,0.0,-1.3467137813568115
1645055469.4638343,20141,1645055469,461639431,,1.6361799240112305,0.0,0.0,0.0,0.0,-1.2066317796707153
1645055469.5144973,20142,1645055469,511415969,,1.3361799716949463,0.0,0.0,0.0,0.0,-0.9966070652008057
1645055469.5652661,20143,1645055469,561070845,,1.036180019378662,0.0,0.0,0.0,0.0,-0.8166055679321289
1645055469.6121907,20144,1645055469,610394394,,0.8453932404518127,0.0,0.0,0.0,0.0,-0.6662479639053345
1645055469.664615,20145,1645055469,660725457,,0.8453932404518127,0.0,0.0,0.0,0.0,-0.6662479639053345
1645055469.71276,20146,1645055469,710365645,,0.8453932404518127,0.0,0.0,0.0,0.0,-0.6662479639053345
1645055469.7622428,20147,1645055469,760339238,,0.8453932404518127,0.0,0.0,0.0,0.0,-0.6662479639053345
1645055469.8141282,20148,1645055469,811168601,,0.8453932404518127,0.0,0.0,0.0,0.0,-0.6662479639053345
1645055469.865198,20149,1645055469,861381649,,0.8453932404518127,0.0,0.0,0.0,0.0,-0.6662479639053345
1645055469.9133284,20150,1645055469,910946157,,1.1453932523727417,0.0,0.0,0.0,0.0,-0.9026756882667542
1645055469.963059,20151,1645055469,960728231,,1.4453932046890259,0.0,0.0,0.0,0.0,-1.1391034126281738
1645055470.013165,20152,1645055470,11594427,,1.74539315700531,0.0,0.0,0.0,0.0,-1.3755310773849487
1645055470.0620878,20153,1645055470,60891610,,2.045393228530884,0.0,0.0,0.0,0.0,-1.6119588613510132
1645055470.115669,20154,1645055470,113211012,,2.345393180847168,0.0,0.0,0.0,0.0,-1.848386526107788
1645055470.1620831,20155,1645055470,160303537,,2.536179780960083,0.0,0.0,0.0,0.0,-1.9987438917160034
1645055470.2137506,20156,1645055470,211173125,,2.536179780960083,0.0,0.0,0.0,0.0,-1.9987438917160034
1645055470.2617223,20157,1645055470,260528483,,2.536179780960083,0.0,0.0,0.0,0.0,-1.9987438917160034
1645055470.315167,20158,1645055470,311677686,,2.536179780960083,0.0,0.0,0.0,0.0,-1.9987438917160034
1645055470.3620331,20159,1645055470,360960276,,2.536179780960083,0.0,0.0,0.0,0.0,-1.9987438917160034
1645055470.4117186,20160,1645055470,410744655,,2.536179780960083,0.0,0.0,0.0,0.0,-1.9987438917160034
1645055470.461857,20161,1645055470,460855945,,2.536179780960083,0.0,0.0,0.0,0.0,-1.9987438917160034
1645055470.5138407,20162,1645055470,511487294,,2.536179780960083,0.0,0.0,0.0,0.0,-1.9987438917160034
1645055470.5644143,20163,1645055470,560418943,,2.536179780960083,0.0,0.0,0.0,0.0,-1.9987438917160034
1645055470.6122806,20164,1645055470,610434521,,2.536179780960083,0.0,0.0,0.0,0.0,-1.9987438917160034
1645055470.6641366,20165,1645055470,661128782,,2.536179780960083,0.0,0.0,0.0,0.0,-1.9987438917160034
1645055470.7137623,20166,1645055470,711596197,,2.536179780960083,0.0,0.0,0.0,0.0,-1.9987438917160034
1645055470.7629702,20167,1645055470,760396455,,2.536179780960083,0.0,0.0,0.0,0.0,-1.9987438917160034
1645055470.8149834,20168,1645055470,811153116,,2.536179780960083,0.0,0.0,0.0,0.0,-1.9987438917160034
1645055470.8629222,20169,1645055470,860926359,,2.536179780960083,0.0,0.0,0.0,0.0,-1.9987438917160034
1645055470.9124877,20170,1645055470,910571827,,2.536179780960083,0.0,0.0,0.0,0.0,-1.9987438917160034
1645055470.9624267,20171,1645055470,960414894,,2.536179780960083,0.0,0.0,0.0,0.0,-1.9987438917160034
1645055471.0139859,20172,1645055471,10912869,,2.536179780960083,0.0,0.0,0.0,0.0,-1.9987438917160034
1645055471.0625074,20173,1645055471,60308579,,2.536179780960083,0.0,0.0,0.0,0.0,-1.9130207300186157
1645055471.1115246,20174,1645055471,110469597,,2.536179780960083,0.0,0.0,0.0,0.0,-1.891642451286316
1645055471.1639702,20175,1645055471,161398162,,2.536179780960083,0.0,0.0,0.0,0.0,-1.8703536987304688
1645055471.2114582,20176,1645055471,210185428,,2.536179780960083,0.0,0.0,0.0,0.0,-1.3652982711791992
1645055471.265307,20177,1645055471,260683724,,2.536179780960083,0.0,0.0,0.0,0.0,0.0
1645055471.3120399,20178,1645055471,310217289,,2.536179780960083,0.0,0.0,0.0,0.0,0.24219222366809845
1645055471.3620076,20179,1645055471,360304515,,2.536179780960083,0.0,0.0,0.0,0.0,1.0965484380722046
1645055471.4116647,20180,1645055471,410424637,,2.536179780960083,0.0,0.0,0.0,0.0,1.2409446239471436
1645055471.462244,20181,1645055471,460382712,,2.536179780960083,0.0,0.0,0.0,0.0,1.2409446239471436
1645055471.5113635,20182,1645055471,510294387,,2.236179828643799,0.0,0.0,0.0,0.0,1.68678879737854
1645055471.5628226,20183,1645055471,560695883,,1.9361798763275146,0.0,0.0,0.0,0.0,1.5258885622024536
1645055471.6152048,20184,1645055471,611111363,,1.6361799240112305,0.0,0.0,0.0,0.0,1.2894608974456787
1645055471.6626694,20185,1645055471,660274660,,1.3361799716949463,0.0,0.0,0.0,0.0,1.0530332326889038
1645055471.7143958,20186,1645055471,711075449,,1.036180019378662,0.0,0.0,0.0,0.0,0.8166055679321289
1645055471.7613442,20187,1645055471,760329016,,0.8453932404518127,0.0,0.0,0.0,0.0,0.6662479639053345
1645055471.8129475,20188,1645055471,811467724,,0.8453932404518127,0.0,0.0,0.0,0.0,0.6662479639053345
1645055471.862458,20189,1645055471,860667084,,1.1453932523727417,0.0,0.0,0.0,0.0,0.8833365440368652
1645055471.9130301,20190,1645055471,911270178,,1.4453932046890259,0.0,0.0,0.0,0.0,1.1146990060806274
1645055471.9622657,20191,1645055471,960324707,,1.74539315700531,0.0,0.0,0.0,0.0,1.1412736177444458
1645055472.0119658,20192,1645055472,10644860,,2.045393228530884,0.0,0.0,0.0,0.0,1.1011433601379395
1645055472.0639513,20193,1645055472,61022485,,2.345393180847168,0.0,0.0,0.0,0.0,1.2434219121932983
1645055472.1110044,20194,1645055472,110179478,,2.536179780960083,0.0,0.0,0.0,0.0,1.1996519565582275
1645055472.1644757,20195,1645055472,160344176,,2.536179780960083,0.0,0.0,0.0,0.0,0.7488034963607788
1645055472.2124627,20196,1645055472,210929128,,2.536179780960083,0.0,0.0,0.0,0.0,0.0
1645055472.2616665,20197,1645055472,260264968,,2.536179780960083,0.0,0.0,0.0,0.0,-0.8914811015129089
1645055472.31046,20198,1645055472,309935077,,2.536179780960083,0.0,0.0,0.0,0.0,-1.1170769929885864
1645055472.362699,20199,1645055472,360277054,,2.536179780960083,0.0,0.0,0.0,0.0,-1.934425950050354
1645055472.4139082,20200,1645055472,411306259,,2.536179780960083,0.0,0.0,0.0,0.0,-1.934425950050354
1645055472.4618678,20201,1645055472,460391733,,2.536179780960083,0.0,0.0,0.0,0.0,-1.9987438917160034
1645055472.5125482,20202,1645055472,510623983,,2.236179828643799,0.0,0.0,0.0,0.0,-1.7623162269592285
1645055472.5625355,20203,1645055472,560718793,,1.9361798763275146,0.0,0.0,0.0,0.0,-1.5258885622024536
1645055472.6141803,20204,1645055472,611119490,,1.6361799240112305,0.0,0.0,0.0,0.0,-1.2894608974456787
1645055472.6637588,20205,1645055472,661128222,,1.3361799716949463,0.0,0.0,0.0,0.0,-1.0530332326889038
1645055472.7118409,20206,1645055472,710193727,,1.036180019378662,0.0,0.0,0.0,0.0,-0.8166055679321289
1645055472.7627878,20207,1645055472,761318995,,0.8453932404518127,0.0,0.0,0.0,0.0,-0.6662479639053345
1645055472.813117,20208,1645055472,810764818,,0.8453932404518127,0.0,0.0,0.0,0.0,-0.6662479639053345
1645055472.8620996,20209,1645055472,860643087,,0.8453932404518127,0.0,0.0,0.0,0.0,-0.6662479639053345
1645055472.9130704,20210,1645055472,911463173,,0.8453932404518127,0.0,0.0,0.0,0.0,-0.6662479639053345
1645055472.9618483,20211,1645055472,960463655,,0.8453932404518127,0.0,0.0,0.0,0.0,-0.6662479639053345
1645055473.0133715,20212,1645055473,11133278,,0.8453932404518127,0.0,0.0,0.0,0.0,-0.6662479639053345
1645055473.061899,20213,1645055473,60395935,,0.8453932404518127,0.0,0.0,0.0,0.0,-0.6662479639053345
1645055473.1132627,20214,1645055473,110952088,,0.8453932404518127,0.0,0.0,0.0,0.0,-0.6662479639053345
1645055473.1628807,20215,1645055473,160293144,,0.8453932404518127,0.0,0.0,0.0,0.0,-0.6662479639053345
1645055473.212624,20216,1645055473,210798865,,1.1453932523727417,0.0,0.0,0.0,0.0,-0.9026756882667542
1645055473.2623217,20217,1645055473,260356912,,1.4453932046890259,0.0,0.0,0.0,0.0,-1.1391034126281738
1645055473.3136775,20218,1645055473,311048072,,1.74539315700531,0.0,0.0,0.0,0.0,-1.3755310773849487
1645055473.3647656,20219,1645055473,361116004,,2.045393228530884,0.0,0.0,0.0,0.0,-1.6119588613510132
1645055473.414327,20220,1645055473,411310399,,1.7453932762145996,0.0,0.0,0.0,0.0,-1.3755310773849487
1645055473.4631612,20221,1645055473,461312027,,1.4453933238983154,0.0,0.0,0.0,0.0,-1.1391034126281738
1645055473.5141056,20222,1645055473,511962227,,1.1453933715820312,0.0,0.0,0.0,0.0,-0.9026758074760437
1645055473.5625339,20223,1645055473,560330874,,0.8453934192657471,0.0,0.0,0.0,0.0,-0.666248083114624
1645055473.6119177,20224,1645055473,610512117,,0.8453932404518127,0.0,0.0,0.0,0.0,-0.6662479639053345
1645055473.6616683,20225,1645055473,660367026,,0.8453932404518127,0.0,0.0,0.0,0.0,-0.6662479639053345
1645055473.712497,20226,1645055473,710383950,,0.8453932404518127,0.0,0.0,0.0,0.0,-0.6662479639053345
1645055473.7615602,20227,1645055473,760081933,,0.8453932404518127,0.0,0.0,0.0,0.0,-0.6662479639053345
1645055473.81229,20228,1645055473,810900547,,0.8453932404518127,0.0,0.0,0.0,0.0,-0.6662479639053345
1645055473.8639617,20229,1645055473,861867353,,0.8453932404518127,0.0,0.0,0.0,0.0,-0.6662479639053345
